time(millisecond),datetime(utc),latitude,longitude,height_above_takeoff(feet),height_above_ground_at_drone_location(feet),ground_elevation_at_drone_location(feet),altitude_above_seaLevel(feet),height_sonar(feet),speed(mph),distance(feet),mileage(feet),satellites,gpslevel,voltage(v),max_altitude(feet),max_ascent(feet),max_speed(mph),max_distance(feet), xSpeed(mph), ySpeed(mph), zSpeed(mph), compass_heading(degrees), pitch(degrees), roll(degrees),isPhoto,isVideo,rc_elevator,rc_aileron,rc_throttle,rc_rudder,rc_elevator(percent),rc_aileron(percent),rc_throttle(percent),rc_rudder(percent),gimbal_heading(degrees),gimbal_pitch(degrees),gimbal_roll(degrees),battery_percent,voltageCell1,voltageCell2,voltageCell3,voltageCell4,voltageCell5,voltageCell6,current(A),battery_temperature(f),altitude(feet),ascent(feet),flycStateRaw,flycState,message
69000,2021-10-10 00:31:35,33.882353627688,-118.371087252864,0,Available with any HD 360 subscription,Available with any HD 360 subscription,81.532767700912,0.328084,0,0,0,13,5,0,81.532767700912,0,0,0,0,0,0,271.5, 3.1, -0.6,0,0,1024,1024,1024,1024,0,0,0,0,259.6,0,0,96,4.281,4.278,0,0,0,0,0,82.94,81.532767700912,0,41,Motors_Started,
69100,2021-10-10 00:31:35,33.8823536761505,-118.371087230394,0,,,81.532767700912,0.328084,0,0.018946194832,0.018946194832,13,5,0,81.532767700912,0,0,0.018946194832,0,0,0,271.5, 3.1, -0.6,0,0,1024,1024,1024,1024,0,0,0,0,259.6,0,0,96,4.281,4.278,0,0,0,0,0,82.94,81.532767700912,0,41,Motors_Started,
69200,2021-10-10 00:31:35,33.8823536802802,-118.371087226488,0,,,81.532767700912,0.328084,0,0.0207849744184,0.0208619101164,13,5,0,81.532767700912,0,0,0.0207849744184,0,0,0,271.6, 3.3, -0.7,0,0,1024,1024,1024,1024,0,0,0,0,259.6,0,0,96,4.281,4.278,0,0,0,0,0,82.94,81.532767700912,0,41,Motors_Started,"Setting new Return-To-Home altitude to 100m (328 ft). Data Recorder File Index is 2. Setting new Maximum Flight Altitude to 120m (394 ft) Aircraft in Warning Zone (Airport). Fly with caution"
69300,2021-10-10 00:31:35,33.882353683485,-118.371087222268,0,,,81.532767700912,0.328084,0,36.111877796,0.0225943576784,13,5,0,81.532767700912,0,0,36.111877796,0,0,0,271.6, 3.2, -0.6,0,0,1024,1024,1024,1024,0,0,0,0,259.6,0,0,96,4.281,4.278,0,0,0,0,0,82.94,81.532767700912,0,41,Motors_Started,
69400,2021-10-10 00:31:35,33.8823536854912,-118.371087218589,0,,,81.532767700912,0.328084,0,36.113190132,0.0239275926292,13,5,0,81.532767700912,0,0,36.113190132,0,0,0,271.6, 3.2, -0.7,0,0,1024,1024,1024,1024,0,0,0,0,259.6,0,0,96,4.281,4.278,0,0,0,0,0,82.94,81.532767700912,0,41,Motors_Started,
69500,2021-10-10 00:31:35,33.8823536081401,-118.371087169113,0,,,81.532767700912,0.328084,0,36.099738688,0.055881235384,13,5,0,81.532767700912,0,0,36.113190132,0,0,0,271.6, 3.3, -0.7,0,0,1024,1024,1024,1024,0,0,0,0,259.6,0,0,96,4.281,4.278,0,0,0,0,0,82.94,81.532767700912,0,41,Motors_Started,
69600,2021-10-10 00:31:36,33.8823535567269,-118.371087166765,0,,,81.532767700912,0.328084,0,36.085302992,0.074652561444,13,5,0,81.532767700912,0,0,36.113190132,0,0,0,271.6, 3.2, -0.7,0,0,1024,1024,1024,1024,0,0,0,0,259.6,0,0,96,4.281,4.278,0,0,0,0,0,82.94,81.532767700912,0,41,Motors_Started,
69700,2021-10-10 00:31:36,33.8823535232591,-118.37108717486,0,,,81.532767700912,0.328084,0,36.074148136,0.087107286252,13,5,0,81.532767700912,0,0,36.113190132,0,0,0,271.6, 3.4, -0.7,0,0,1024,1024,1024,1024,0,0,0,0,259.6,0,0,96,4.281,4.278,0,0,0,0,0,82.94,81.532767700912,0,41,Motors_Started,
69800,2021-10-10 00:31:36,33.8823535580753,-118.371087225817,0,,,81.532767700912,0.328084,0,36.074804304,0.107096788204,13,5,0,81.532767700912,0,0,36.113190132,0,0,0,271.7, 3.2, -0.7,0,0,1024,1024,1024,1024,0,0,0,0,259.6,0,0,96,4.281,4.278,0,0,0,0,0,82.94,81.532767700912,0,41,Motors_Started,
69900,2021-10-10 00:31:36,33.8823535786783,-118.371087269045,0,,,81.532767700912,0.328084,0,36.0728358,0.122194229632,13,5,0,81.532767700912,0,0,36.113190132,0,0,0,271.7, 3.3, -0.7,0,0,1024,1024,1024,1024,0,0,0,0,259.6,0,0,96,4.281,4.278,0,0,0,0,0,82.94,81.532767700912,0,41,Motors_Started,
70000,2021-10-10 00:31:36,33.8823535710702,-118.371087343484,0,,,81.532767700912,0.328084,0,36.057087768,0.14491142196,13,5,0,81.532767700912,0,0,36.113190132,0,0,0,271.6, 3.3, -0.7,0,0,1024,1024,1024,1024,0,0,0,0,259.6,0,0,96,4.281,4.278,0,0,0,0,0,82.94,81.532767700912,0,41,Motors_Started,
70100,2021-10-10 00:31:36,33.8823535414391,-118.371087353003,0,,,81.532767700912,0.328084,0,36.04658908,0.156100398696,13,5,8.561,81.532767700912,0,0,36.113190132,0,0,0,271.7, 3.3, -0.7,0,0,1024,1024,1024,1024,0,0,0,0,259.6,0,0,96,4.268,4.263,0,0,0,0,0.594,82.94,81.532767700912,0,11,AutoTakeoff,
70200,2021-10-10 00:31:36,33.8823535299683,-118.371087350222,0,,,81.532767700912,0.328084,0,36.043964408,0.160369427704,13,5,8.561,81.532767700912,0,0,36.113190132,0,0,0,271.6, 3, -0.6,0,0,1024,1024,1024,1024,0,0,0,0,259.6,0,0,96,4.268,4.263,0,0,0,0,0.594,82.94,81.532767700912,0,11,AutoTakeoff,
70300,2021-10-10 00:31:36,33.8823535216632,-118.371087347111,0,,,81.532767700912,0.328084,0,36.041995904,0.163542656152,13,5,8.561,81.532767700912,0,0,36.113190132,0,0,0,271.5, 2.2, -0.5,0,0,1024,1024,1024,1024,0,0,0,0,259.6,0,0,96,4.268,4.263,0,0,0,0,0.594,82.94,81.532767700912,0,11,AutoTakeoff,
70400,2021-10-10 00:31:36,33.8823535407356,-118.371087288487,0,,,81.532767700912,0.328084,0,36.058400104,0.182614179072,13,5,8.561,81.532767700912,0,0,36.113190132,0,0,0,271.6, 0.6, -0.6,0,0,1024,1024,1024,1024,0,0,0,0,259.6,0,0,96,4.268,4.263,0,0,0,0,0.594,82.94,81.532767700912,0,11,AutoTakeoff,
70500,2021-10-10 00:31:36,33.8823535308998,-118.371087293182,0,,,81.532767700912,0.328084,0,36.054463096,0.186474415416,14,5,8.561,81.532767700912,0,0,36.113190132,0,0,0,271.2, -1.7, -0.7,0,0,1024,1024,1134,1024,0,0,17,0,259.6,0,0,96,4.268,4.263,0,0,0,0,0.594,82.94,81.532767700912,0,11,AutoTakeoff,
70600,2021-10-10 00:31:36,33.882353483981,-118.371087318707,0,,,81.532767700912,0.328084,0,36.036418476,0.2052575525,14,5,8.561,81.532767700912,0,0,36.113190132,0,0,0,270.6, -3.5, -0.9,0,0,1024,1024,1262,1024,0,0,36,0,259.5,0,0,96,4.268,4.263,0,0,0,0,0.594,82.94,81.532767700912,0,11,AutoTakeoff,
70700,2021-10-10 00:31:37,33.8823534549166,-118.371087372693,0,,,81.532767700912,0.328084,0,36.018045772,0.224746726352,14,5,8.561,81.532767700912,0,0,36.113190132,0,0,-0.447388,269.9, -2.7, 0.7,0,0,1024,1024,1162,1024,0,0,21,0,259.5,0,0,96,4.268,4.263,0,0,0,0,0.594,82.94,81.532767700912,0,11,AutoTakeoff,
70800,2021-10-10 00:31:37,33.8823535608697,-118.371087458111,0,,,81.532767700912,0.328084,0,36.032809552,0.271262803956,14,5,8.561,81.532767700912,0,0,36.113190132,0,0,-0.671082,269.8, -0.7, -0.4,0,0,1024,1024,1024,1024,0,0,0,0,259.4,0,0,96,4.268,4.263,0,0,0,0,0.594,82.94,81.532767700912,0,11,AutoTakeoff,
70900,2021-10-10 00:31:37,33.8823536385269,-118.371087568389,0,,,81.532767700912,0.656168,0,36.03510614,0.315063330292,14,5,8.561,81.532767700912,0,0,36.113190132,0,0,-1.11847,270, 0.6, -0.6,0,0,1024,1024,1024,1024,0,0,0,0,259.4,0,0,96,4.268,4.263,0,0,0,0,0.594,82.94,81.532767700912,0,11,AutoTakeoff,
71000,2021-10-10 00:31:37,33.8823537125104,-118.371087683485,0.328084,,,81.860851700912,0.656168,0,36.035434224,0.3591535548,14,5,8.561,81.860851700912,0.328084,0,36.113190132,0,0,-1.342164,269.5, 0.6, -0.6,0,0,1024,1024,1024,1024,0,0,0,0,259.3,0,0,96,4.268,4.263,0,0,0,0,0.594,82.94,81.860851700912,0.328084,11,AutoTakeoff,
71100,2021-10-10 00:31:37,33.8823537919328,-118.371087743013,0.328084,,,81.860851700912,0.984252,0,36.047573332,0.39328085248,14,5,8.512,81.860851700912,0.328084,0,36.113190132,0,0,-1.789552,269.8, -0.4, -1.1,0,0,1024,1024,1024,1024,0,0,0,0,259.2,0,0,95,4.248,4.238,0,0,0,0,1.475,82.94,81.860851700912,0.328084,11,AutoTakeoff,
71200,2021-10-10 00:31:37,33.8823539023088,-118.371087927275,0.656168,,,82.188935700912,1.312336,0.223694,36.045932912,0.462106314,14,5,8.512,82.188935700912,0.656168,0.223694,36.113190132,0,0.223694,-1.789552,269.9, -1.6, -1.7,0,0,1024,1024,1024,1024,0,0,0,0,259.2,0,0,95,4.248,4.238,0,0,0,0,1.475,82.94,82.188935700912,0.656168,11,AutoTakeoff,
71300,2021-10-10 00:31:37,33.8823539913912,-118.371087869306,0.984252,,,82.517019700912,1.312336,0.223694,36.082350236,0.4990485724,14,5,8.512,82.517019700912,0.984252,0.223694,36.113190132,0,0.223694,-2.013246,270.1, -2.8, -2,0,0,1024,1024,1024,1024,0,0,0,0,259.1,0,0,95,4.248,4.238,0,0,0,0,1.475,82.94,82.517019700912,0.984252,11,AutoTakeoff,
71400,2021-10-10 00:31:37,33.8823541303952,-118.371087588749,1.312336,,,82.845103700912,1.64042,0.223694,36.174213756,0.59800854932,14,5,8.512,82.845103700912,1.312336,0.223694,36.174213756,0,0.223694,-2.013246,270, -3.1, -1.9,0,0,1024,1024,1024,1024,0,0,0,0,259.1,0,0,95,4.248,4.238,0,0,0,0,1.475,82.94,82.845103700912,1.312336,11,AutoTakeoff,
71500,2021-10-10 00:31:37,33.8823542463794,-118.37108733028,1.64042,,,83.173187700912,1.968504,0.223694,36.255250504,0.68700133432,13,4,8.512,83.173187700912,1.64042,0.223694,36.255250504,0,0.223694,-2.23694,270.1, -3.5, -2,0,0,1024,1024,1024,364,0,0,0,-100,258.3,0,0,95,4.248,4.238,0,0,0,0,1.475,82.94,83.173187700912,1.64042,11,AutoTakeoff,
71600,2021-10-10 00:31:38,33.8823543125399,-118.371087135528,1.968504,,,83.501271700912,2.296588,0.223694,36.310040532,0.750738213,13,4,8.512,83.501271700912,1.968504,0.223694,36.310040532,0,0.223694,-2.23694,267.4, -4.5, -1.4,0,0,1024,1024,1024,364,0,0,0,-100,256.6,0,0,95,4.248,4.238,0,0,0,0,1.475,82.94,83.501271700912,1.968504,11,AutoTakeoff,
71700,2021-10-10 00:31:38,33.8823544712415,-118.371086611749,2.296588,,,83.829355700912,2.624672,0.223694,36.452428988,0.91962273284,14,4,8.512,83.829355700912,2.296588,0.223694,36.452428988,0,0.223694,-2.23694,261, -5.7, -0.9,0,0,1024,1024,1024,364,0,0,0,-100,250.4,0,0,95,4.248,4.238,0,0,0,0,1.475,82.94,83.829355700912,2.296588,11,AutoTakeoff,
71800,2021-10-10 00:31:38,33.8823545593534,-118.371086614262,2.624672,,,84.157439700912,2.952756,0.223694,36.477691456,0.95177824568,14,4,8.512,84.157439700912,2.624672,0.223694,36.477691456,0,0.223694,-2.013246,254.8, -6, -1.1,0,0,1024,1024,1024,1024,0,0,0,0,244.2,0,0,95,4.248,4.238,0,0,0,0,1.475,82.94,84.157439700912,2.624672,6,P-GPS,
71900,2021-10-10 00:31:38,33.8823546612874,-118.371086595244,2.952756,,,84.485523700912,3.28084,0.223694,36.510499856,0.98941276132,14,4,8.512,84.485523700912,2.952756,0.223694,36.510499856,0,0.223694,-1.565858,252.1, -5.9, -0.8,0,0,1024,1024,1024,1024,0,0,0,0,240.4,0,0,95,4.248,4.238,0,0,0,0,1.475,82.94,84.485523700912,2.952756,6,P-GPS,
72000,2021-10-10 00:31:38,33.8823548497635,-118.371086436831,3.28084,,,84.813607700912,3.608924,0,36.59448936,1.07326447004,14,4,8.512,84.813607700912,3.28084,0.223694,36.59448936,0,0,-1.11847,252.2, -5.3, -1,0,0,1024,1024,1024,1028,0,0,0,1,240.3,0,0,95,4.248,4.238,0,0,0,0,1.475,82.94,84.813607700912,3.28084,6,P-GPS,
72100,2021-10-10 00:31:38,33.882355165851,-118.371086368172,3.28084,,,84.813607700912,3.608924,0,36.698820072,1.19044951316,14,4,8.365,84.813607700912,3.28084,0.223694,36.698820072,0,0,-0.671082,252.4, -4.3, -1.1,0,0,1024,1024,1024,1684,0,0,0,100,240.3,0,0,95,4.183,4.174,0,0,0,0,3.279,82.94,84.813607700912,3.28084,6,P-GPS,
72200,2021-10-10 00:31:38,33.8823551923816,-118.371086406291,3.28084,,,84.813607700912,3.608924,0,36.69947624,1.20551513044,14,4,8.365,84.813607700912,3.28084,0.223694,36.69947624,0,0,-0.223694,252.5, -3.8, -0.8,0,0,1024,1024,1024,1684,0,0,0,100,240.4,0,0,95,4.183,4.174,0,0,0,0,3.279,82.94,84.813607700912,3.28084,6,P-GPS,
72300,2021-10-10 00:31:38,33.8823551942706,-118.371086587447,3.28084,,,84.813607700912,3.937008,0,36.66666784,1.26039046028,14,4,8.365,84.813607700912,3.28084,0.223694,36.69947624,0,0,0,253.1, -3.5, -0.4,0,0,1024,1024,1058,1684,0,0,5,100,242.7,0,0,95,4.183,4.174,0,0,0,0,3.279,82.94,84.813607700912,3.28084,6,P-GPS,
72400,2021-10-10 00:31:38,33.8823551228536,-118.371087335223,3.28084,,,84.813607700912,3.937008,0,36.509515604,1.48837931272,14,4,8.365,84.813607700912,3.28084,0.223694,36.69947624,0,0,0,256.4, -4, -0.9,0,0,1024,1024,1055,1684,0,0,5,100,247.1,0,0,95,4.183,4.174,0,0,0,0,3.279,82.94,84.813607700912,3.28084,6,P-GPS,
72500,2021-10-10 00:31:38,33.8823547319163,-118.371089308633,3.28084,,,84.813607700912,3.937008,0,36.03838698,2.10289376808,14,4,8.365,84.813607700912,3.28084,0.223694,36.69947624,0,0,0,260.9, -4.1, -1.3,0,0,1024,1024,1049,1684,0,0,4,100,251.8,0,0,95,4.183,4.174,0,0,0,0,3.279,82.94,84.813607700912,3.28084,6,P-GPS,
72600,2021-10-10 00:31:39,33.8823547557242,-118.371089438244,3.28084,,,84.813607700912,3.937008,0,36.022310864,2.14310046228,14,4,8.365,84.813607700912,3.28084,0.223694,36.69947624,0,0,0,265.5, -4.4, -2.1,0,0,1024,1024,1024,1684,0,0,0,100,256.6,0,0,95,4.183,4.174,0,0,0,0,3.279,82.94,84.813607700912,3.28084,6,P-GPS,
72700,2021-10-10 00:31:39,33.8823548078083,-118.371089452066,3.28084,,,84.813607700912,3.937008,0.223694,36.03510614,2.16255912432,14,4,8.365,84.813607700912,3.28084,0.223694,36.69947624,0,0.223694,0,270.2, -5.6, -2.8,0,0,1024,1024,1024,1024,0,0,0,0,261.4,0,0,95,4.183,4.174,0,0,0,0,3.279,82.94,84.813607700912,3.28084,6,P-GPS,
72800,2021-10-10 00:31:39,33.8823549328207,-118.371089209913,2.952756,,,84.485523700912,3.937008,0.223694,36.115158636,2.24893051816,14,4,8.365,84.813607700912,3.28084,0.223694,36.69947624,0,0.223694,0,275, -6, -3.4,0,0,1024,1024,1024,1024,0,0,0,0,265.4,0,0,95,4.183,4.174,0,0,0,0,3.279,82.94,84.485523700912,2.952756,6,P-GPS,
72900,2021-10-10 00:31:39,33.8823552307283,-118.371087914757,2.952756,,,84.485523700912,3.937008,0,36.436024788,2.65600074116,14,4,8.365,84.813607700912,3.28084,0.223694,36.69947624,0,0,0,278, -5.9, -3.1,0,0,1024,1024,1024,1024,0,0,0,0,267.2,0,0,95,4.183,4.174,0,0,0,0,3.279,82.94,84.485523700912,2.952756,6,P-GPS,
73000,2021-10-10 00:31:39,33.8823553481847,-118.371087706492,2.952756,,,84.485523700912,3.937008,0,36.507875184,2.73226386696,14,4,8.365,84.813607700912,3.28084,0.223694,36.69947624,0,0,0,279.4, -5.4, -3.3,0,0,1024,1024,1024,1024,0,0,0,0,267.7,0,0,95,4.183,4.174,0,0,0,0,3.279,82.94,84.485523700912,2.952756,6,P-GPS,
73100,2021-10-10 00:31:39,33.8823554460867,-118.371087497954,2.952756,,,84.485523700912,3.937008,0,36.574476236,2.80482620524,14,4,8.375,84.813607700912,3.28084,0.223694,36.69947624,0,0,0,279.5, -5.3, -3.5,0,0,1033,1024,1024,1024,1,0,0,0,267.7,0,0,95,4.204,4.195,0,0,0,0,4.249,82.94,84.485523700912,2.952756,6,P-GPS,
73200,2021-10-10 00:31:39,33.882355502952,-118.37108723382,2.952756,,,84.485523700912,3.937008,0,36.6387807,2.88747712652,14,4,8.375,84.813607700912,3.28084,0.223694,36.69947624,0,0,0,279.7, -5.5, -3.5,0,0,1033,1024,1024,1024,1,0,0,0,267.7,0,0,95,4.204,4.195,0,0,0,0,4.249,82.94,84.485523700912,2.952756,6,P-GPS,
73300,2021-10-10 00:31:39,33.8823555489392,-118.37108699761,2.952756,,,84.485523700912,3.937008,0,36.695211148,2.96096466168,14,4,8.375,84.813607700912,3.28084,0.223694,36.69947624,0,0,0,279.8, -5.4, -3.2,0,0,1162,1024,1025,1024,21,0,0,0,267.7,0,0,95,4.204,4.195,0,0,0,0,4.249,82.94,84.485523700912,2.952756,6,P-GPS,
73400,2021-10-10 00:31:39,33.8823556844127,-118.371086385116,2.952756,,,84.485523700912,3.937008,0,36.846457872,3.15295613764,14,4,8.375,84.813607700912,3.28084,0.223694,36.846457872,0,0,0,279.9, -5.6, -2.3,0,0,1684,1024,1028,1024,100,0,1,0,267.7,0,0,95,4.204,4.195,0,0,0,0,4.249,82.94,84.485523700912,2.952756,6,P-GPS,
73500,2021-10-10 00:31:39,33.8823557352723,-118.371086262909,2.952756,,,84.485523700912,3.937008,0,36.883531364,3.19436361928,14,4,8.375,84.813607700912,3.28084,0.223694,36.883531364,0,0,0,279.9, -14.7, -2.9,0,0,1684,1024,1024,1024,100,0,0,0,267.7,0,0,95,4.204,4.195,0,0,0,0,4.249,82.94,84.485523700912,2.952756,6,P-GPS,
73600,2021-10-10 00:31:40,33.8823557675806,-118.371086321306,2.952756,,,84.485523700912,3.937008,0.447388,36.882219028,3.21562018164,14,4,8.375,84.813607700912,3.28084,0.447388,36.883531364,0,-0.447388,0,280.2, -23.3, -2.8,0,0,1684,1024,1024,1024,100,0,0,0,267.7,0,0,95,4.204,4.195,0,0,0,0,4.249,82.94,84.485523700912,2.952756,6,P-GPS,
73700,2021-10-10 00:31:40,33.8823558387958,-118.371086680987,3.28084,,,84.813607700912,3.937008,1.3645334,36.83727152,3.3276247784,14,4,8.375,84.813607700912,3.28084,1.3645334,36.883531364,0.223694,-1.342164,0,280.3, -24.3, -2.7,0,0,1501,1024,1024,1024,72,0,0,0,267.7,0,0,95,4.204,4.195,0,0,0,0,4.249,82.94,84.813607700912,3.28084,6,P-GPS,
73800,2021-10-10 00:31:40,33.8823559156192,-118.371087601106,3.28084,,,84.813607700912,3.937008,2.0356154,36.693242644,3.6077100892,14,4,8.375,84.813607700912,3.28084,2.0356154,36.883531364,0.223694,-2.013246,0,280.3, -24.3, -2.9,0,0,1024,1024,1024,1024,0,0,0,0,267.7,0,0,95,4.204,4.195,0,0,0,0,4.249,82.94,84.813607700912,3.28084,6,P-GPS,
73900,2021-10-10 00:31:40,33.8823560852445,-118.371088729583,2.952756,,,84.485523700912,3.937008,2.7290668,36.540683584,3.9550854284,14,4,8.375,84.813607700912,3.28084,2.7290668,36.883531364,0.447388,-2.684328,0,280.1, -16.6, -3.1,0,0,1024,1024,1024,1024,0,0,0,0,267.7,0,0,95,4.204,4.195,0,0,0,0,4.249,82.94,84.485523700912,2.952756,6,P-GPS,
74000,2021-10-10 00:31:40,33.8823562694085,-118.371090173879,2.952756,,,84.485523700912,3.937008,2.9527608,36.339568092,4.3976707444,14,4,8.375,84.813607700912,3.28084,2.9527608,36.883531364,0.447388,-2.908022,0,279.5, 5.1, -2.3,0,0,1024,1024,1024,1024,0,0,0,0,267.7,0,0,95,4.204,4.195,0,0,0,0,4.249,82.94,84.485523700912,2.952756,6,P-GPS,"Homepoint updated. RTH altitude adjusted to 100 m (Code: 120852)"
74100,2021-10-10 00:31:40,33.8823564347672,-118.37109148248,2.952756,,,84.485523700912,3.937008,2.460634,36.160434228,4.7986222008,13,4,8.38,84.813607700912,3.28084,2.9527608,36.883531364,0.223694,-2.460634,0,279.3, 10.2, -2.3,0,0,1024,1024,1024,1024,0,0,0,0,267.7,0,0,95,4.19,4.18,0,0,0,0,3.743,83.12,84.485523700912,2.952756,6,P-GPS,
74200,2021-10-10 00:31:40,33.8823566693217,-118.371093597538,2.952756,,,84.485523700912,3.937008,1.8119214,35.869095636,5.4449476808,13,4,8.38,84.813607700912,3.28084,2.9527608,36.883531364,0.223694,-1.789552,0,278.8, 9.3, -2.5,0,0,1629,1024,1024,1024,92,0,0,0,267.7,0,0,95,4.19,4.18,0,0,0,0,3.743,83.12,84.485523700912,2.952756,6,P-GPS,
74300,2021-10-10 00:31:40,33.8823568532968,-118.371094649889,2.952756,,,84.485523700912,3.937008,1.3645334,35.74803264,5.770669476,13,4,8.38,84.813607700912,3.28084,2.9527608,36.883531364,0.223694,-1.342164,0,279.3, -3.8, -3,0,0,1684,1024,1024,1024,100,0,0,0,267.7,0,0,95,4.19,4.18,0,0,0,0,3.743,83.12,84.485523700912,2.952756,6,P-GPS,
74400,2021-10-10 00:31:40,33.8823571017778,-118.371095670188,2.952756,,,84.485523700912,3.937008,1.3645334,35.6545287,6.0927495388,13,4,8.38,84.813607700912,3.28084,2.9527608,36.883531364,0.223694,-1.342164,0,280.2, -18.7, -2,0,0,1684,1024,1024,1024,100,0,0,0,267.7,0,0,95,4.19,4.18,0,0,0,0,3.743,83.12,84.485523700912,2.952756,6,P-GPS,
74500,2021-10-10 00:31:40,33.8823573620879,-118.371096714537,2.952756,,,84.485523700912,3.937008,1.8119214,35.563321348,6.4229988932,13,4,8.38,84.813607700912,3.28084,2.9527608,36.883531364,0.223694,-1.789552,0,280.3, -23.8, -1.7,0,0,1684,1024,1024,1024,100,0,0,0,267.7,0,0,95,4.19,4.18,0,0,0,0,3.743,83.12,84.485523700912,2.952756,6,P-GPS,
74600,2021-10-10 00:31:41,33.8823579962756,-118.371097709533,2.952756,,,84.485523700912,3.937008,2.5053728,35.59875442,6.802985782,13,4,8.38,84.813607700912,3.28084,2.9527608,36.883531364,0.447388,-2.460634,0,280.3, -25.1, -1.9,0,0,1024,1024,1024,1024,0,0,0,0,267.7,0,0,95,4.19,4.18,0,0,0,0,3.743,83.12,84.485523700912,2.952756,6,P-GPS,
74700,2021-10-10 00:31:41,33.8823583571844,-118.371098957797,2.952756,,,84.485523700912,3.937008,3.1540854,35.513124496,7.2033466872,13,4,8.38,84.813607700912,3.28084,3.1540854,36.883531364,0.447388,-3.131716,0,280.4, -24.6, -2.1,0,0,1024,1024,1024,1024,0,0,0,0,267.7,0,0,95,4.19,4.18,0,0,0,0,3.743,83.12,84.485523700912,2.952756,6,P-GPS,
74800,2021-10-10 00:31:41,33.8823587429693,-118.371100278735,2.952756,,,84.485523700912,3.937008,3.8699062,35.428478824,7.627460874,13,4,8.38,84.813607700912,3.28084,3.8699062,36.883531364,0.671082,-3.802798,0,280, -7.9, -2,0,0,1024,1024,1024,1024,0,0,0,0,267.7,0,0,95,4.19,4.18,0,0,0,0,3.743,83.12,84.485523700912,2.952756,6,P-GPS,
74900,2021-10-10 00:31:41,33.8823591226703,-118.371101639862,2.952756,,,84.485523700912,3.937008,3.8699062,35.340880396,8.0624018328,14,4,8.38,84.813607700912,3.28084,3.8699062,36.883531364,0.671082,-3.579104,0,279.4, 13.4, -2.6,0,0,1024,1024,1024,1024,0,0,0,0,267.7,0,0,95,4.19,4.18,0,0,0,0,3.743,83.12,84.485523700912,2.952756,6,P-GPS,
75000,2021-10-10 00:31:41,33.8823594821526,-118.371103060521,2.624672,,,84.157439700912,3.937008,3.1540854,35.24278328,8.5122378052,14,4,8.38,84.813607700912,3.28084,3.8699062,36.883531364,0.447388,-3.131716,-0.223694,279.3, 13.6, -3.1,0,0,1341,1024,1028,1024,48,0,1,0,267.7,0,0,95,4.19,4.18,0,0,0,0,3.743,83.12,84.157439700912,2.624672,6,P-GPS,
75100,2021-10-10 00:31:41,33.8823597924493,-118.371103292097,2.624672,,,84.157439700912,3.937008,2.5053728,35.307743912,8.6454399092,14,4,8.362,84.813607700912,3.28084,3.8699062,36.883531364,0.447388,-2.460634,0,279.1, 12, -2.4,0,0,1341,1024,1028,1024,48,0,1,0,267.7,0,0,95,4.187,4.174,0,0,0,0,4.164,83.12,84.157439700912,2.624672,6,P-GPS,
75200,2021-10-10 00:31:41,33.8823601375557,-118.371104393326,2.624672,,,84.157439700912,3.937008,1.8342908,35.258203228,9.001968792,14,4,8.362,84.813607700912,3.28084,3.8699062,36.883531364,0.447388,-1.789552,0,279.4, 2.6, -2.4,0,0,1024,1024,1024,1024,0,0,0,0,267.7,0,0,95,4.187,4.174,0,0,0,0,4.164,83.12,84.157439700912,2.624672,6,P-GPS,
75300,2021-10-10 00:31:41,33.882360493527,-118.371105251209,2.624672,,,84.157439700912,3.937008,1.5882274,35.250001128,9.2924543656,14,4,8.362,84.813607700912,3.28084,3.8699062,36.883531364,0.223694,-1.565858,0,279.7, 0, -2.4,0,0,1024,1024,1024,1024,0,0,0,0,267.7,0,0,95,4.187,4.174,0,0,0,0,4.164,83.12,84.157439700912,2.624672,6,P-GPS,
75400,2021-10-10 00:31:41,33.8823609944885,-118.371105880117,2.624672,,,84.157439700912,3.608924,1.1408394,35.32316386,9.5564635604,14,4,8.362,84.813607700912,3.28084,3.8699062,36.883531364,0.223694,-1.11847,0,279.5, 3.6, -2.5,0,0,1024,1024,1024,1024,0,0,0,0,267.7,0,0,95,4.187,4.174,0,0,0,0,4.164,83.12,84.157439700912,2.624672,6,P-GPS,
75500,2021-10-10 00:31:41,33.8823618517926,-118.371106675413,2.624672,,,84.157439700912,3.608924,0.7158208,35.491142868,9.9512470376,15,4,8.362,84.813607700912,3.28084,3.8699062,36.883531364,0.223694,-0.671082,0,279.5, 3.1, -2.6,0,0,1024,1024,1429,1024,0,0,61,0,267.7,0,0,95,4.187,4.174,0,0,0,0,4.164,83.12,84.157439700912,2.624672,6,P-GPS,
75600,2021-10-10 00:31:42,33.8823620195093,-118.371106861347,2.624672,,,84.157439700912,3.608924,0.4921268,35.520342344,10.0344163316,15,4,8.362,84.813607700912,3.28084,3.8699062,36.883531364,0.223694,-0.447388,0,279.5, 2.1, -2.7,0,0,1024,1024,1684,1024,0,0,100,0,267.7,0,0,95,4.187,4.174,0,0,0,0,4.164,83.12,84.157439700912,2.624672,6,P-GPS,
75700,2021-10-10 00:31:42,33.8823621424048,-118.37110686032,2.624672,,,84.157439700912,3.937008,0.223694,35.560696676,10.079232606,15,4,8.362,84.813607700912,3.28084,3.8699062,36.883531364,0,-0.223694,-0.671082,279.6, 0.1, -2.2,0,0,1024,1024,1684,1024,0,0,100,0,267.7,0,0,95,4.187,4.174,0,0,0,0,4.164,83.12,84.157439700912,2.624672,6,P-GPS,
75800,2021-10-10 00:31:42,33.882362231637,-118.371106600861,2.952756,,,84.485523700912,3.937008,0.223694,35.62500114,10.1643047872,15,4,8.362,84.813607700912,3.28084,3.8699062,36.883531364,0,-0.223694,-1.342164,279.6, -1.3, -2.4,0,0,1024,1024,1024,1024,0,0,0,0,267.7,0,0,95,4.187,4.174,0,0,0,0,4.164,83.12,84.485523700912,2.952756,6,P-GPS,
75900,2021-10-10 00:31:42,33.8823619260367,-118.371105728402,3.28084,,,84.813607700912,4.265092,0.223694,35.6463266,10.45111582,15,4,8.362,84.813607700912,3.28084,3.8699062,36.883531364,0,-0.223694,-2.23694,279.7, -1.7, -2.5,0,0,1024,1024,1024,1024,0,0,0,0,267.7,0,0,95,4.187,4.174,0,0,0,0,4.164,83.12,84.813607700912,3.28084,6,P-GPS,
76000,2021-10-10 00:31:42,33.8823620203496,-118.371105403218,3.937008,,,85.469775700912,4.593176,0,35.722114004,10.5554793404,15,4,8.362,85.469775700912,3.937008,3.8699062,36.883531364,0,0,-2.460634,280, -2.1, -2.5,0,0,1024,1024,1024,960,0,0,0,-10,267.7,0,0,95,4.187,4.174,0,0,0,0,4.164,83.12,85.469775700912,3.937008,6,P-GPS,
76100,2021-10-10 00:31:42,33.882362102104,-118.371105062014,4.265092,,,85.797859700912,4.92126,0,35.796260988,10.6630252756,15,4,8.385,85.797859700912,4.265092,3.8699062,36.883531364,0,0,-1.789552,280.1, -2, -2.4,0,0,1024,1024,1024,960,0,0,0,-10,267.7,0,0,95,4.192,4.182,0,0,0,0,4.196,83.12,85.797859700912,4.265092,6,P-GPS,
76200,2021-10-10 00:31:42,33.882362195935,-118.371104724422,4.593176,,,86.125943700912,5.249344,0,35.874016896,10.7708664864,15,4,8.385,86.125943700912,4.593176,3.8699062,36.883531364,0,0,-1.342164,280, -1.4, -2.2,0,0,1024,1024,1024,364,0,0,0,-100,267.6,0,0,95,4.192,4.182,0,0,0,0,4.196,83.12,86.125943700912,4.593176,6,P-GPS,
76300,2021-10-10 00:31:42,33.8823620372073,-118.371104903886,4.593176,,,86.125943700912,5.249344,0,35.797573324,10.8502956228,15,4,8.385,86.125943700912,4.593176,3.8699062,36.883531364,0,0,-0.671082,279.6, -1.7, -2.2,0,0,1024,1024,1024,364,0,0,0,-100,266.3,0,0,95,4.192,4.182,0,0,0,0,4.196,83.12,86.125943700912,4.593176,6,P-GPS,
76400,2021-10-10 00:31:42,33.8823620258473,-118.371104924731,4.593176,,,86.125943700912,5.577428,0,35.79068356,10.8578415548,15,4,8.385,86.125943700912,4.593176,3.8699062,36.883531364,0,0,-0.223694,277, -2.5, -1.8,0,0,1024,1024,1024,364,0,0,0,-100,262.2,0,0,95,4.192,4.182,0,0,0,0,4.196,83.12,86.125943700912,4.593176,6,P-GPS,
76500,2021-10-10 00:31:42,33.882361996431,-118.371104915867,4.92126,,,86.454027700912,5.577428,0,35.78248146,10.8688979856,15,4,8.385,86.454027700912,4.92126,3.8699062,36.883531364,0,0,0,272.5, -3, -1.9,0,0,1024,1024,1024,364,0,0,0,-100,257.5,0,0,95,4.192,4.182,0,0,0,0,4.196,83.12,86.454027700912,4.92126,6,P-GPS,
76600,2021-10-10 00:31:43,33.8823618965748,-118.371104803484,4.92126,,,86.454027700912,5.577428,0,35.76607726,10.9187667536,15,4,8.385,86.454027700912,4.92126,3.8699062,36.883531364,0,0,0,267.9, -3.3, -1.8,0,0,1024,1024,1024,364,0,0,0,-100,252.7,0,0,95,4.192,4.182,0,0,0,0,4.196,83.12,86.454027700912,4.92126,6,P-GPS,
76700,2021-10-10 00:31:43,33.8823618601107,-118.371104630196,4.92126,,,86.454027700912,5.577428,0,35.778872536,10.9729006136,15,4,8.385,86.454027700912,4.92126,3.8699062,36.883531364,0,0.223694,0,263.2, -3.6, -1.9,0,0,1024,1024,1024,364,0,0,0,-100,247.9,0,0,95,4.192,4.182,0,0,0,0,4.196,83.12,86.454027700912,4.92126,6,P-GPS,
76800,2021-10-10 00:31:43,33.8823621327318,-118.371104209807,4.593176,,,86.125943700912,5.577428,0.223694,35.926182252,11.1344819836,15,4,8.385,86.454027700912,4.92126,3.8699062,36.883531364,0,0.223694,0,258.4, -4, -1.6,0,0,1024,1024,1024,693,0,0,0,-50,243.1,0,0,95,4.192,4.182,0,0,0,0,4.196,83.12,86.125943700912,4.593176,6,P-GPS,
76900,2021-10-10 00:31:43,33.882362334952,-118.371103735798,4.593176,,,86.125943700912,5.577428,0.223694,36.058728188,11.2958993116,15,4,8.385,86.454027700912,4.92126,3.8699062,36.883531364,0,0.223694,0,253.7, -4.5, -1.2,0,0,1024,1024,1024,1017,0,0,0,-1,238.3,0,0,95,4.192,4.182,0,0,0,0,4.196,83.12,86.125943700912,4.593176,6,P-GPS,
77000,2021-10-10 00:31:43,33.8823625193114,-118.371103044985,4.593176,,,86.125943700912,5.249344,0.223694,36.216864676,11.5156827832,15,4,8.385,86.454027700912,4.92126,3.8699062,36.883531364,0,0.223694,0,249, -4.9, -0.7,0,0,1024,1024,1024,1017,0,0,0,-1,234.4,0,0,95,4.192,4.182,0,0,0,0,4.196,83.12,86.125943700912,4.593176,6,P-GPS,
77100,2021-10-10 00:31:43,33.8823626894642,-118.371102424947,4.593176,,,86.125943700912,5.249344,0,36.360893552,11.7134846268,15,4,8.411,86.454027700912,4.92126,3.8699062,36.883531364,0,0,0,246.2, -4.8, -0.8,0,0,1024,1024,1024,364,0,0,0,-100,232.6,0,0,95,4.203,4.194,0,0,0,0,4.419,83.12,86.125943700912,4.593176,6,P-GPS,
77200,2021-10-10 00:31:43,33.8823630385505,-118.371101336509,4.593176,,,86.125943700912,5.249344,0,36.630906684,12.06692952,15,4,8.411,86.454027700912,4.92126,3.8699062,36.883531364,0,0,0,244.7, -5, -0.3,0,0,1024,1024,1046,536,0,0,3,-74,230.8,0,0,95,4.203,4.194,0,0,0,0,4.419,83.12,86.125943700912,4.593176,6,P-GPS,
77300,2021-10-10 00:31:43,33.8823631415919,-118.371100907756,4.593176,,,86.125943700912,5.249344,0,36.726707212,12.2021329364,15,4,8.411,86.454027700912,4.92126,3.8699062,36.883531364,0,0,0,241.9, -4.5, 0.9,0,0,1024,1024,1024,1028,0,0,0,1,227,0,0,95,4.203,4.194,0,0,0,0,4.419,83.12,86.125943700912,4.593176,6,P-GPS,
77400,2021-10-10 00:31:43,33.8823632228513,-118.371100531962,4.593176,,,86.125943700912,5.249344,0,36.808072044,12.3197510504,15,4,8.411,86.454027700912,4.92126,3.8699062,36.883531364,0,0,0,238.6, -4.5, 1,0,0,1024,1024,1076,1684,0,0,8,100,224.7,0,0,95,4.203,4.194,0,0,0,0,4.419,83.12,86.125943700912,4.593176,6,P-GPS,
77500,2021-10-10 00:31:43,33.8823632925682,-118.37110020248,4.593176,,,86.125943700912,5.249344,0,36.878938188,12.422736618,15,4,8.411,86.454027700912,4.92126,3.8699062,36.883531364,0,0,0,237, -4.5, 1.8,0,0,1024,1024,1164,1684,0,0,21,100,225.1,0,0,95,4.203,4.194,0,0,0,0,4.419,83.12,86.125943700912,4.593176,6,P-GPS,
77600,2021-10-10 00:31:44,33.8823633502608,-118.371100282522,4.593176,,,86.125943700912,5.249344,0,36.885499868,12.4548232332,15,4,8.411,86.454027700912,4.92126,3.8699062,36.885499868,0,0,0,238.6, -4.7, 1.5,0,0,1024,1024,1352,1684,0,0,50,100,228.9,0,0,95,4.203,4.194,0,0,0,0,4.419,83.12,86.125943700912,4.593176,6,P-GPS,
77700,2021-10-10 00:31:44,33.8823634085721,-118.371100106283,4.593176,,,86.125943700912,5.249344,0,36.930119292,12.51230355,15,4,8.411,86.454027700912,4.92126,3.8699062,36.930119292,0,0,-0.223694,243.1, -4.8, 2,0,0,1024,1024,1353,1684,0,0,50,100,233.6,0,0,95,4.203,4.194,0,0,0,0,4.419,83.12,86.125943700912,4.593176,6,P-GPS,
77800,2021-10-10 00:31:44,33.8823634478632,-118.37110008402,4.593176,,,86.125943700912,5.577428,0,36.945867324,12.5281500072,15,4,8.411,86.454027700912,4.92126,3.8699062,36.945867324,0,0,-0.671082,247.2, -5.9, 1.9,0,0,1024,1024,1303,1684,0,0,42,100,238.4,0,0,95,4.203,4.194,0,0,0,0,4.419,83.12,86.125943700912,4.593176,6,P-GPS,
77900,2021-10-10 00:31:44,33.8823634963126,-118.371100106149,4.92126,,,86.454027700912,5.577428,0,36.958006432,12.5470476456,15,4,8.411,86.454027700912,4.92126,3.8699062,36.958006432,0,0,-1.342164,252, -6, 1.5,0,0,1024,1024,1303,1684,0,0,42,100,243.2,0,0,95,4.203,4.194,0,0,0,0,4.419,83.12,86.454027700912,4.92126,6,P-GPS,
78000,2021-10-10 00:31:44,33.8823633774948,-118.37110113974,5.249344,,,86.782111700912,5.905512,0,36.768045796,12.8630909628,15,4,8.411,86.782111700912,5.249344,3.8699062,36.958006432,0,0,-1.789552,256.8, -5.2, 2,0,0,1024,1024,1024,1024,0,0,0,0,248,0,0,95,4.203,4.194,0,0,0,0,4.419,83.12,86.782111700912,5.249344,6,P-GPS,
78100,2021-10-10 00:31:44,33.8823634540122,-118.371101226417,5.577428,,,87.110195700912,6.233596,0,36.77985682,12.901411174,15,4,8.36,87.110195700912,5.577428,3.8699062,36.958006432,0,0,-1.789552,261.4, -5, -0.2,0,0,1024,1024,1024,1024,0,0,0,0,251.9,0,0,95,4.181,4.174,0,0,0,0,3.783,83.12,87.110195700912,5.577428,6,P-GPS,
78200,2021-10-10 00:31:44,33.8823636018423,-118.37110118386,5.577428,,,87.110195700912,6.233596,0.223694,36.833334512,12.9568901784,15,4,8.36,87.110195700912,5.577428,3.8699062,36.958006432,0.223694,0,-1.342164,264.6, -6.1, -2,0,0,1024,1024,1024,1024,0,0,0,0,253.9,0,0,95,4.181,4.174,0,0,0,0,3.783,83.12,87.110195700912,5.577428,6,P-GPS,
78300,2021-10-10 00:31:44,33.8823637477965,-118.371101102797,5.905512,,,87.438279700912,6.56168,0.223694,36.891733464,13.0155187892,15,4,8.36,87.438279700912,5.905512,3.8699062,36.958006432,0.223694,0,-0.671082,266.3, -6.9, -2.5,0,0,1024,1024,1024,1024,0,0,0,0,254.4,0,0,95,4.181,4.174,0,0,0,0,3.783,83.12,87.438279700912,5.905512,6,P-GPS,
78400,2021-10-10 00:31:44,33.8823638590778,-118.371100934065,5.905512,,,87.438279700912,6.56168,0.223694,36.95210092,13.0808075052,15,4,8.36,87.438279700912,5.905512,3.8699062,36.958006432,0.223694,0,-0.447388,266.6, -7, -3.1,0,0,1024,1024,1024,1024,0,0,0,0,254.4,0,0,95,4.181,4.174,0,0,0,0,3.783,83.12,87.438279700912,5.905512,6,P-GPS,
78500,2021-10-10 00:31:44,33.8823638879534,-118.371100833813,5.905512,,,87.438279700912,6.56168,0.223694,36.975722968,13.1129269288,15,4,8.36,87.438279700912,5.905512,3.8699062,36.975722968,0.223694,0,0,266.7, -6.7, -4.1,0,0,1024,1024,484,1024,0,0,-82,0,254.4,0,0,95,4.181,4.174,0,0,0,0,3.783,83.12,87.438279700912,5.905512,6,P-GPS,
78600,2021-10-10 00:31:44,33.8823641307349,-118.371100749034,5.905512,,,87.438279700912,6.56168,0.223694,37.065946068,13.2051513412,15,4,8.36,87.438279700912,5.905512,3.8699062,37.065946068,0.223694,0,0,266.8, -7, -4.2,0,0,1024,1024,364,1024,0,0,-100,0,254.4,0,0,95,4.181,4.174,0,0,0,0,3.783,83.12,87.438279700912,5.905512,6,P-GPS,
78700,2021-10-10 00:31:45,33.8823643256922,-118.371100648049,5.905512,,,87.438279700912,6.56168,0.223694,37.142717724,13.2825791652,15,4,8.36,87.438279700912,5.905512,3.8699062,37.142717724,0.223694,0,0.671082,266.9, -7.3, -4.6,0,0,1024,1024,364,1024,0,0,-100,0,254.4,0,0,95,4.181,4.174,0,0,0,0,3.783,83.12,87.438279700912,5.905512,6,P-GPS,
78800,2021-10-10 00:31:45,33.8823644202201,-118.371100459953,5.577428,,,87.110195700912,6.233596,0,37.200460508,13.3491802172,15,4,8.36,87.438279700912,5.905512,3.8699062,37.200460508,0,0,1.11847,266.7, -7, -4.3,0,0,1024,1024,364,1024,0,0,-100,0,254.4,0,0,95,4.181,4.174,0,0,0,0,3.783,83.12,87.110195700912,5.577428,6,P-GPS,
78900,2021-10-10 00:31:45,33.8823645957143,-118.371100235688,5.249344,,,86.782111700912,6.233596,0,37.289371272,13.4425201152,15,4,8.36,87.438279700912,5.905512,3.8699062,37.289371272,0,0,1.342164,266.6, -6.6, -4.4,0,0,1024,1024,364,1024,0,0,-100,0,254.4,0,0,95,4.181,4.174,0,0,0,0,3.783,83.12,86.782111700912,5.249344,6,P-GPS,
79000,2021-10-10 00:31:45,33.8823647416945,-118.37109990422,5.249344,,,86.782111700912,5.905512,0,37.384515632,13.5562012212,15,4,8.36,87.438279700912,5.905512,3.8699062,37.384515632,0,0,1.342164,266.5, -6.5, -4.1,0,0,1024,1024,1085,1024,0,0,9,0,254.4,0,0,95,4.181,4.174,0,0,0,0,3.783,83.12,86.782111700912,5.249344,6,P-GPS,
79100,2021-10-10 00:31:45,33.8823648580631,-118.371099616987,4.92126,,,86.454027700912,5.577428,0,37.46391196,13.6529860012,15,4,8.355,87.438279700912,5.905512,3.8699062,37.46391196,0,0,1.342164,266.5, -6.4, -4,0,0,1024,1024,1024,1024,0,0,0,0,254.4,0,0,95,4.196,4.189,0,0,0,0,4.216,83.3,86.454027700912,4.92126,6,P-GPS,
79200,2021-10-10 00:31:45,33.8823649229533,-118.371099427131,4.593176,,,86.125943700912,5.577428,0,37.512796476,13.7151907276,15,4,8.355,87.438279700912,5.905512,3.8699062,37.512796476,0,0,1.11847,266.3, -5.9, -3.3,0,0,1024,1024,1024,1024,0,0,0,0,254.4,0,0,95,4.196,4.189,0,0,0,0,4.216,83.3,86.125943700912,4.593176,6,P-GPS,
79300,2021-10-10 00:31:45,33.8823650425919,-118.371098986268,4.593176,,,86.125943700912,5.249344,0,37.615814852,13.8556762964,15,4,8.355,87.438279700912,5.905512,3.8699062,37.615814852,0,0,0.671082,266.4, -6.5, -3.2,0,0,1024,1024,1024,1024,0,0,0,0,254.4,0,0,95,4.196,4.189,0,0,0,0,4.216,83.3,86.125943700912,4.593176,6,P-GPS,
79400,2021-10-10 00:31:45,33.8823650605764,-118.371098892517,4.593176,,,86.125943700912,5.249344,0,37.635499892,13.8848101556,15,4,8.355,87.438279700912,5.905512,3.8699062,37.635499892,0,0,0.223694,266.5, -6.2, -3.3,0,0,1024,1024,1027,1395,0,0,0,56,254.4,0,0,95,4.196,4.189,0,0,0,0,4.216,83.3,86.125943700912,4.593176,6,P-GPS,
79500,2021-10-10 00:31:45,33.8823650704708,-118.371098834739,4.593176,,,86.125943700912,5.249344,0,37.647310916,13.9026907336,15,4,8.355,87.438279700912,5.905512,3.8699062,37.647310916,0,0,0,266.5, -6.1, -4,0,0,1024,1024,1038,1543,0,0,2,79,254.5,0,0,95,4.196,4.189,0,0,0,0,4.216,83.3,86.125943700912,4.593176,6,P-GPS,
79600,2021-10-10 00:31:46,33.8823650539584,-118.371098840311,4.593176,,,86.125943700912,5.249344,0,37.64107732,13.9089243296,15,4,8.355,87.438279700912,5.905512,3.8699062,37.647310916,0,0,0,267, -6, -3.4,0,0,1024,1024,1024,1563,0,0,0,82,255.9,0,0,95,4.196,4.189,0,0,0,0,4.216,83.3,86.125943700912,4.593176,6,P-GPS,
79700,2021-10-10 00:31:46,33.8823649938297,-118.371099102366,4.593176,,,86.125943700912,5.249344,0,37.583334536,13.9912734136,15,4,8.355,87.438279700912,5.905512,3.8699062,37.647310916,0,0,0,269.1, -6, -3.4,0,0,1024,1024,1024,1024,0,0,0,0,258.9,0,0,95,4.196,4.189,0,0,0,0,4.216,83.3,86.125943700912,4.593176,6,P-GPS,
79800,2021-10-10 00:31:46,33.8823650462331,-118.371099053246,4.593176,,,86.125943700912,5.249344,0,37.607284668,14.0155188212,15,4,8.355,87.438279700912,5.905512,3.8699062,37.647310916,0,0,0,272.6, -5.5, -3.6,0,0,1024,1024,1024,1024,0,0,0,0,262.6,0,0,95,4.196,4.189,0,0,0,0,4.216,83.3,86.125943700912,4.593176,6,P-GPS,
79900,2021-10-10 00:31:46,33.8823650524212,-118.371099045749,4.593176,,,86.125943700912,5.249344,0,37.610237424,14.018701236,15,5,8.355,87.438279700912,5.905512,3.8699062,37.647310916,0,0,0,275.3, -5, -3.5,0,0,1024,1024,1024,1024,0,0,0,0,264.2,0,0,95,4.196,4.189,0,0,0,0,4.216,83.3,86.125943700912,4.593176,6,P-GPS,
80000,2021-10-10 00:31:46,33.8823648883326,-118.371099192469,4.593176,,,86.125943700912,5.249344,0,37.536418524,14.0932747292,15,5,8.355,87.438279700912,5.905512,3.8699062,37.647310916,0,0,0,276.4, -4.6, -3.5,0,0,1024,1024,1024,1024,0,0,0,0,264.9,0,0,95,4.196,4.189,0,0,0,0,4.216,83.3,86.125943700912,4.593176,6,P-GPS,
80100,2021-10-10 00:31:46,33.8823647355781,-118.371099350753,4.593176,,,86.125943700912,5.249344,0,37.464240044,14.1667983536,15,5,8.355,87.438279700912,5.905512,3.8699062,37.647310916,0,0,0,276.9, -4.7, -3.5,0,0,1684,1024,1024,1024,100,0,0,0,264.9,0,0,95,4.196,4.189,0,0,0,0,4.216,83.3,86.125943700912,4.593176,6,P-GPS,
80200,2021-10-10 00:31:46,33.8823642253149,-118.371100176429,4.593176,,,86.125943700912,5.249344,0,37.179791216,14.4785765788,15,5,8.367,87.438279700912,5.905512,3.8699062,37.647310916,0,0,0,277.2, -7.9, -3.2,0,0,1684,959,1024,1024,100,-10,0,0,264.9,0,0,95,4.175,4.164,0,0,0,0,3.62,83.3,86.125943700912,4.593176,6,P-GPS,
80300,2021-10-10 00:31:46,33.882364135985,-118.371100431157,4.593176,,,86.125943700912,4.92126,0.223694,37.113846332,14.562336424,15,5,8.367,87.438279700912,5.905512,3.8699062,37.647310916,0,-0.223694,0,277.7, -20.3, -3.4,0,0,1684,826,1024,1024,100,-30,0,0,264.9,0,0,95,4.175,4.164,0,0,0,0,3.62,83.3,86.125943700912,4.593176,6,P-GPS,
80400,2021-10-10 00:31:46,33.8823641098061,-118.371100905491,4.593176,,,86.125943700912,4.92126,0.894776,37.036418508,14.7062996832,15,5,8.367,87.438279700912,5.905512,3.8699062,37.647310916,0,-0.894776,0,278.1, -24.7, -4.2,0,0,1684,771,1024,1024,100,-38,0,0,264.9,0,0,95,4.175,4.164,0,0,0,0,3.62,83.3,86.125943700912,4.593176,6,P-GPS,
80500,2021-10-10 00:31:46,33.8823641260906,-118.371101662915,4.593176,,,86.125943700912,4.92126,1.565858,36.931759712,14.9357944412,15,5,8.367,87.438279700912,5.905512,3.8699062,37.647310916,0,-1.565858,0,278.4, -24.1, -7,0,0,1684,771,1024,1024,100,-38,0,0,264.9,0,0,95,4.175,4.164,0,0,0,0,3.62,83.3,86.125943700912,4.593176,6,P-GPS,
80600,2021-10-10 00:31:47,33.8823641747159,-118.371102977553,4.92126,,,86.454027700912,4.92126,2.460634,36.759187528,15.3343836928,15,5,8.367,87.438279700912,5.905512,3.8699062,37.647310916,0,-2.460634,0,278.6, -23.1, -9,0,0,1684,771,1024,1024,100,-38,0,0,264.9,0,0,95,4.175,4.164,0,0,0,0,3.62,83.3,86.454027700912,4.92126,6,P-GPS,
80700,2021-10-10 00:31:47,33.882364182806,-118.371104352776,4.92126,,,86.454027700912,4.92126,3.131716,36.568898808,15.7509519476,15,5,8.367,87.438279700912,5.905512,3.8699062,37.647310916,0,-3.131716,0,278.8, -23.1, -9.6,0,0,1684,771,1024,1024,100,-38,0,0,264.9,0,0,95,4.175,4.164,0,0,0,0,3.62,83.3,86.454027700912,4.92126,6,P-GPS,
80800,2021-10-10 00:31:47,33.8823641318292,-118.371106136083,4.593176,,,86.125943700912,4.92126,4.026492,36.307743944,16.2914375292,15,5,8.367,87.438279700912,5.905512,4.026492,37.647310916,0,-4.026492,0,278.9, -23.1, -9.3,0,0,1684,771,1024,1024,100,-38,0,0,264.9,0,0,95,4.175,4.164,0,0,0,0,3.62,83.3,86.125943700912,4.593176,6,P-GPS,
80900,2021-10-10 00:31:47,33.8823640365587,-118.371108161213,4.593176,,,86.125943700912,4.92126,4.026492,36.006234748,16.9058076276,15,5,8.367,87.438279700912,5.905512,4.026492,37.647310916,-0.223694,-4.697574,0,278.9, -23.2, -8.8,0,0,1684,771,1024,1024,100,-38,0,0,264.9,0,0,95,4.175,4.164,0,0,0,0,3.62,83.3,86.125943700912,4.593176,6,P-GPS,
81000,2021-10-10 00:31:47,33.8823640223456,-118.3711111694,4.593176,,,86.125943700912,4.92126,5.368656,35.615486704,17.8169625124,15,5,8.367,87.438279700912,5.905512,5.368656,37.647310916,-0.223694,-5.368656,0,278.9, -23.1, -8.8,0,0,1684,772,1024,1024,100,-38,0,0,264.9,0,0,95,4.175,4.164,0,0,0,0,3.62,83.3,86.125943700912,4.593176,6,P-GPS,
81100,2021-10-10 00:31:47,33.8823638783195,-118.371113982442,4.593176,,,86.125943700912,4.92126,6.0621074,35.223754408,18.6706370804,15,5,8.349,87.438279700912,5.905512,6.0621074,37.647310916,-0.447388,-6.039738,0,278.7, -22.9, -8.8,0,0,1684,772,1024,1024,100,-38,0,0,264.9,0,0,95,4.163,4.153,0,0,0,0,4.068,83.3,86.125943700912,4.593176,6,P-GPS,
81200,2021-10-10 00:31:47,33.8823637054179,-118.371117374434,4.593176,,,86.125943700912,4.92126,6.7331894,34.77362316,19.699967822,15,5,8.349,87.438279700912,5.905512,6.7331894,37.647310916,-0.671082,-6.71082,0,278.7, -23.4, -8.7,0,0,1684,772,1024,1024,100,-38,0,0,264.9,0,0,95,4.163,4.153,0,0,0,0,4.068,83.3,86.125943700912,4.593176,6,P-GPS,
81300,2021-10-10 00:31:47,33.882363501706,-118.371120840797,4.593176,,,86.125943700912,4.92126,7.1805774,34.330053592,20.7525597192,15,5,8.349,87.438279700912,5.905512,7.1805774,37.647310916,-0.671082,-7.158208,0,278.6, -23.4, -8.7,0,0,1684,772,1024,1024,100,-38,0,0,264.9,0,0,95,4.163,4.153,0,0,0,0,4.068,83.3,86.125943700912,4.593176,6,P-GPS,
81400,2021-10-10 00:31:47,33.8823633840086,-118.371125212964,4.593176,,,86.125943700912,4.92126,7.8740288,33.857612632,22.0775269532,15,5,8.349,87.438279700912,5.905512,7.8740288,37.647310916,-0.894776,-7.82929,0,278.7, -23.5, -8.6,0,0,1684,773,1024,1024,100,-38,0,0,264.9,0,0,95,4.163,4.153,0,0,0,0,4.068,83.3,86.125943700912,4.593176,6,P-GPS,
81500,2021-10-10 00:31:47,33.8823631165921,-118.371129070737,4.593176,,,86.125943700912,4.92126,8.3214168,33.421260912,23.2500991692,15,5,8.349,87.438279700912,5.905512,8.3214168,37.647310916,-0.894776,-8.276678,0,278.5, -23.1, -8.3,0,0,1684,790,1024,1024,100,-35,0,0,264.9,0,0,95,4.163,4.153,0,0,0,0,4.068,83.3,86.125943700912,4.593176,6,P-GPS,
81600,2021-10-10 00:31:48,33.8823628749896,-118.371133356387,4.593176,,,86.125943700912,4.92126,9.0148682,32.998360636,24.551181888,15,5,8.349,87.438279700912,5.905512,9.0148682,37.647310916,-1.11847,-8.94776,0,278.7, -23.6, -7.9,0,0,1684,805,1024,1024,100,-33,0,0,264.9,0,0,95,4.163,4.153,0,0,0,0,4.068,83.3,86.125943700912,4.593176,6,P-GPS,
81700,2021-10-10 00:31:48,33.88236260117,-118.371137733951,4.593176,,,86.125943700912,4.92126,9.4622562,32.6045614108,25.8808407232,15,5,8.349,87.438279700912,5.905512,9.4622562,37.647310916,-1.11847,-9.395148,0,278.5, -23.1, -7.1,0,0,1684,823,1024,1024,100,-30,0,0,264.9,0,0,95,4.163,4.153,0,0,0,0,4.068,83.3,86.125943700912,4.593176,6,P-GPS,
81800,2021-10-10 00:31:48,33.8823622179255,-118.371142836408,4.593176,,,86.125943700912,4.92126,9.9096442,32.18586061,27.4326780432,15,5,8.349,87.438279700912,5.905512,9.9096442,37.647310916,-1.11847,-9.842536,0,278.2, -22.9, -6.5,0,0,1684,823,1024,1024,100,-30,0,0,264.9,0,0,95,4.163,4.153,0,0,0,0,4.068,83.3,86.125943700912,4.593176,6,P-GPS,
81900,2021-10-10 00:31:48,33.8823620533679,-118.371148297545,4.593176,,,86.125943700912,4.92126,10.3570322,31.9046598136,29.0878946316,15,5,8.349,87.438279700912,5.905512,10.3570322,37.647310916,-1.11847,-10.289924,0,278.4, -23.2, -6.5,0,0,1684,992,1024,1024,100,-5,0,0,264.9,0,0,95,4.163,4.153,0,0,0,0,4.068,83.3,86.125943700912,4.593176,6,P-GPS,
82000,2021-10-10 00:31:48,33.8823617466082,-118.371153598124,4.593176,,,86.125943700912,4.92126,10.8044202,31.6585311968,30.6972778852,15,5,8.349,87.438279700912,5.905512,10.8044202,37.647310916,-1.11847,-10.737312,0,278, -22.8, -5,0,0,1329,1024,1024,1024,46,0,0,0,264.9,0,0,95,4.163,4.153,0,0,0,0,4.068,83.3,86.125943700912,4.593176,6,P-GPS,
82100,2021-10-10 00:31:48,33.8823614719092,-118.371158808503,4.593176,,,86.125943700912,4.92126,11.1847,31.504758226,32.2786427652,15,5,8.313,87.438279700912,5.905512,11.1847,37.647310916,-0.447388,-11.1847,0,281.1, -19.5, -2,0,0,1024,1024,1024,1024,0,0,0,0,264.9,0,0,95,4.147,4.141,0,0,0,0,4.662,83.48,86.125943700912,4.593176,6,P-GPS,
82200,2021-10-10 00:31:48,33.8823612351335,-118.371164324093,4.593176,,,86.125943700912,4.92126,11.408394,31.44767161,33.951444656,15,5,8.313,87.438279700912,5.905512,11.408394,37.647310916,-0.223694,-11.408394,0,280.8, -5.9, -1.5,0,0,1024,1024,1024,1024,0,0,0,0,264.9,0,0,95,4.147,4.141,0,0,0,0,4.662,83.48,86.125943700912,4.593176,6,P-GPS,
82300,2021-10-10 00:31:48,33.8823614557746,-118.371169177088,4.593176,,,86.125943700912,4.92126,10.513618,31.6268382824,35.423557564,15,5,8.313,87.438279700912,5.905512,11.408394,37.647310916,-0.223694,-10.513618,-0.223694,281.1, 20.2, 2.8,0,0,1024,1024,1024,1024,0,0,0,0,264.9,0,0,95,4.147,4.141,0,0,0,0,4.662,83.48,86.125943700912,4.593176,6,P-GPS,
82400,2021-10-10 00:31:48,33.8823612983431,-118.371174091494,4.593176,,,86.125943700912,5.249344,9.171454,31.7389445852,36.913387008,15,5,8.313,87.438279700912,5.905512,11.408394,37.647310916,-0.223694,-9.171454,-0.671082,281.6, 19.4, 3,0,0,1024,1024,1024,1024,0,0,0,0,264.9,0,0,95,4.147,4.141,0,0,0,0,4.662,83.48,86.125943700912,4.593176,6,P-GPS,
82500,2021-10-10 00:31:48,33.8823611630195,-118.371178303285,4.265092,,,85.797859700912,5.249344,8.276678,31.8899616504,38.189961852,15,5,8.313,87.438279700912,5.905512,11.408394,37.647310916,-0.223694,-8.276678,-0.223694,281.9, 20.2, 4.5,0,0,1024,1024,1024,1024,0,0,0,0,264.9,0,0,95,4.147,4.141,0,0,0,0,4.662,83.48,85.797859700912,4.265092,6,P-GPS,
82600,2021-10-10 00:31:49,33.8823610262106,-118.371182225181,4.265092,,,85.797859700912,5.249344,7.158208,32.07185142,39.378938268,15,5,8.313,87.438279700912,5.905512,11.408394,37.647310916,0,-7.158208,-0.223694,281.7, 20.1, 4.9,0,0,1024,1024,1024,1024,0,0,0,0,264.9,0,0,95,4.147,4.141,0,0,0,0,4.662,83.48,85.797859700912,4.265092,6,P-GPS,
82700,2021-10-10 00:31:49,33.8823610572227,-118.371185013971,4.265092,,,85.797859700912,5.249344,6.039738,32.2727044448,40.223754568,15,5,8.313,87.438279700912,5.905512,11.408394,37.647310916,0,-6.039738,0,281.7, 19.5, 5.1,0,0,1024,1024,1024,1024,0,0,0,0,264.9,0,0,95,4.147,4.141,0,0,0,0,4.662,83.48,85.797859700912,4.265092,6,P-GPS,
82800,2021-10-10 00:31:49,33.8823612326778,-118.37118775393,3.937008,,,85.469775700912,5.249344,4.921268,32.541339624,41.056103676,15,5,8.313,87.438279700912,5.905512,11.408394,37.647310916,0,-4.921268,0,281.5, 20, 4.2,0,0,1024,1024,1024,1024,0,0,0,0,264.9,0,0,95,4.147,4.141,0,0,0,0,4.662,83.48,85.469775700912,3.937008,6,P-GPS,
82900,2021-10-10 00:31:49,33.8823614094095,-118.371189830922,3.937008,,,85.469775700912,5.249344,4.026492,32.7729013112,41.688321544,15,5,8.313,87.438279700912,5.905512,11.408394,37.647310916,0,-4.026492,0,281.3, 19.3, 4,0,0,1024,1024,1024,1024,0,0,0,0,264.9,0,0,95,4.147,4.141,0,0,0,0,4.662,83.48,85.469775700912,3.937008,6,P-GPS,
83000,2021-10-10 00:31:49,33.8823615277323,-118.371191270778,3.937008,,,85.469775700912,5.249344,4.026492,32.93799318,42.126641768,15,5,8.313,87.438279700912,5.905512,11.408394,37.647310916,0,-3.131716,0,281, 19.5, 2.8,0,0,1024,1024,1024,1024,0,0,0,0,264.9,0,0,95,4.147,4.141,0,0,0,0,4.662,83.48,85.469775700912,3.937008,6,P-GPS,
83100,2021-10-10 00:31:49,33.8823620028145,-118.371190353711,3.937008,,,85.469775700912,5.249344,2.23694,33.02493544,42.4540696,15,5,8.28,87.438279700912,5.905512,11.408394,37.647310916,0,-2.23694,0,280.7, 18.7, 1.9,0,0,1024,1262,1024,1024,0,36,0,0,264.9,0,0,95,4.161,4.163,0,0,0,0,5.07,83.48,85.469775700912,3.937008,6,P-GPS,
83200,2021-10-10 00:31:49,33.8823620772735,-118.371190704383,3.937008,,,85.469775700912,5.249344,1.342164,33.081037804,42.563649656,15,5,8.28,87.438279700912,5.905512,11.408394,37.647310916,0,-1.342164,0.223694,280.1, 13.5, -1.2,0,0,1024,1671,1024,1024,0,98,0,0,264.9,0,0,95,4.161,4.163,0,0,0,0,5.07,83.48,85.469775700912,3.937008,6,P-GPS,
83300,2021-10-10 00:31:49,33.8823621533088,-118.371190653173,3.937008,,,85.469775700912,5.249344,0.671082,33.103347516,42.595473804,15,5,8.28,87.438279700912,5.905512,11.408394,37.647310916,0,-0.671082,0.223694,280.2, 6.1, 5.2,0,0,1024,1684,1024,1024,0,100,0,0,264.9,0,0,95,4.161,4.163,0,0,0,0,5.07,83.48,85.469775700912,3.937008,6,P-GPS,
83400,2021-10-10 00:31:49,33.8823623050277,-118.371190178432,3.937008,,,85.469775700912,5.249344,0.4921268,33.116142792,42.749673284,15,5,8.28,87.438279700912,5.905512,11.408394,37.647310916,0.447388,-0.223694,0,280.4, 2.7, 14.6,0,0,1024,1684,1024,1024,0,100,0,0,264.9,0,0,95,4.161,4.163,0,0,0,0,5.07,83.48,85.469775700912,3.937008,6,P-GPS,
83500,2021-10-10 00:31:49,33.8823626868587,-118.371189496565,3.937008,,,85.469775700912,5.249344,1.11847,33.193242532,42.99868904,15,5,8.28,87.438279700912,5.905512,11.408394,37.647310916,1.11847,0,0,280, -0.2, 18.5,0,0,1024,1684,1024,1024,0,100,0,0,264.9,0,0,95,4.161,4.163,0,0,0,0,5.07,83.48,85.469775700912,3.937008,6,P-GPS,
83600,2021-10-10 00:31:50,33.8823635879745,-118.371187151954,3.937008,,,85.469775700912,5.249344,2.0356154,33.325788468,43.781497464,15,5,8.28,87.438279700912,5.905512,11.408394,37.647310916,2.013246,0.223694,0,279.7, -2.1, 19.2,0,0,1024,1684,1024,1024,0,100,0,0,264.9,0,0,95,4.161,4.163,0,0,0,0,5.07,83.48,85.469775700912,3.937008,6,P-GPS,
83700,2021-10-10 00:31:50,33.8823646726485,-118.371186162821,3.937008,,,85.469775700912,5.249344,2.9527608,33.6368121,44.277560472,15,5,8.28,87.438279700912,5.905512,11.408394,37.647310916,2.908022,0.447388,0,279.7, -2.5, 18,0,0,1024,1684,1024,1024,0,100,0,0,264.9,0,0,95,4.161,4.163,0,0,0,0,5.07,83.48,85.469775700912,3.937008,6,P-GPS,
83800,2021-10-10 00:31:50,33.8823661215272,-118.371185191423,4.265092,,,85.797859700912,5.249344,3.6462122,34.082678256,44.882547368,15,5,8.28,87.438279700912,5.905512,11.408394,37.647310916,3.579104,0.671082,0,279.7, -3, 16.8,0,0,1024,1684,1024,1024,0,100,0,0,264.9,0,0,95,4.161,4.163,0,0,0,0,5.07,83.48,85.797859700912,4.265092,6,P-GPS,
83900,2021-10-10 00:31:50,33.8823677901221,-118.371184236117,4.265092,,,85.797859700912,5.577428,4.5186188,34.612862,45.556759988,15,5,8.28,87.438279700912,5.905512,11.408394,37.647310916,4.47388,0.671082,0,279.9, -3.6, 16.3,0,0,1024,1684,1024,1024,0,100,0,0,264.9,0,0,95,4.161,4.163,0,0,0,0,5.07,83.48,85.797859700912,4.265092,6,P-GPS,
84000,2021-10-10 00:31:50,33.8823703638648,-118.371183884387,4.265092,,,85.797859700912,5.577428,5.2120702,35.50853132,46.501641908,15,5,8.28,87.438279700912,5.905512,11.408394,37.647310916,5.144962,0.894776,0,279.9, -3.9, 16.4,0,0,1024,1684,1024,1024,0,100,0,0,264.9,0,0,95,4.161,4.163,0,0,0,0,5.07,83.48,85.797859700912,4.265092,6,P-GPS,
84100,2021-10-10 00:31:50,33.8823726871984,-118.371183090028,4.265092,,,85.797859700912,5.577428,5.8831522,36.290683576,47.382875532,15,5,8.361,87.438279700912,5.905512,11.408394,37.647310916,5.816044,0.894776,0,280, -3.8, 16.4,0,0,1024,1684,1024,1024,0,100,0,0,264.9,0,0,95,4.166,4.154,0,0,0,0,3.369,83.48,85.797859700912,4.265092,6,P-GPS,
84200,2021-10-10 00:31:50,33.88237547245,-118.371182311722,4.265092,,,85.797859700912,5.577428,6.5542342,37.24409568,48.426182652,15,5,8.361,87.438279700912,5.905512,11.408394,37.647310916,6.487126,0.894776,0,280.1, -3.6, 15.8,0,0,1024,1024,1024,1024,0,0,0,0,264.9,0,0,95,4.166,4.154,0,0,0,0,3.369,83.48,85.797859700912,4.265092,6,P-GPS,
84300,2021-10-10 00:31:50,33.8823783375148,-118.371181542723,4.265092,,,85.797859700912,5.577428,7.0239916,38.231300436,49.497048828,15,5,8.361,87.438279700912,5.905512,11.408394,38.231300436,6.934514,1.11847,0,280.2, -3.6, 14.3,0,0,1024,1024,1024,1024,0,0,0,0,264.9,0,0,95,4.166,4.154,0,0,0,0,3.369,83.48,85.797859700912,4.265092,6,P-GPS,
84400,2021-10-10 00:31:50,33.8823819580409,-118.371181624221,4.593176,,,86.125943700912,5.577428,7.2476856,39.537074756,50.818243096,15,5,8.361,87.438279700912,5.905512,11.408394,39.537074756,7.158208,1.11847,0,280.2, -2.4, -10.9,0,0,1024,1024,1024,1024,0,0,0,0,264.9,0,0,95,4.166,4.154,0,0,0,0,3.369,83.48,86.125943700912,4.593176,6,P-GPS,
84500,2021-10-10 00:31:50,33.8823848779321,-118.371180836094,4.593176,,,86.125943700912,5.577428,6.5766036,40.54954198,51.910106648,15,5,8.361,87.438279700912,5.905512,11.408394,40.54954198,6.487126,1.11847,0,280.2, -1.1, -18,0,0,1024,1024,1024,1024,0,0,0,0,264.9,0,0,95,4.166,4.154,0,0,0,0,3.369,83.48,86.125943700912,4.593176,6,P-GPS,
84600,2021-10-10 00:31:51,33.8823876631706,-118.371179936003,4.593176,,,86.125943700912,5.577428,5.704197,41.512140436,52.962272036,15,5,8.361,87.438279700912,5.905512,11.408394,41.512140436,5.59235,1.11847,0,280.5, -0.9, -19.6,0,0,1024,1024,1024,1024,0,0,0,0,264.9,0,0,95,4.166,4.154,0,0,0,0,3.369,83.48,86.125943700912,4.593176,6,P-GPS,
84700,2021-10-10 00:31:51,33.8823899771635,-118.371179142615,4.593176,,,86.125943700912,5.577428,4.7870516,42.313321564,53.839896736,15,5,8.361,87.438279700912,5.905512,11.408394,42.313321564,4.697574,0.894776,0,281, -1.6, -19.4,0,0,1024,1024,1024,588,0,0,0,-66,264.9,0,0,95,4.166,4.154,0,0,0,0,3.369,83.48,86.125943700912,4.593176,6,P-GPS,
84800,2021-10-10 00:31:51,33.8823919891647,-118.371178960511,4.593176,,,86.125943700912,5.577428,3.914645,43.03313786,54.576117232,15,5,8.361,87.438279700912,5.905512,11.408394,43.03313786,3.802798,0.894776,0,281, -2.4, -18.4,0,0,1024,1024,1024,588,0,0,0,-66,264.9,0,0,95,4.166,4.154,0,0,0,0,3.369,83.48,86.125943700912,4.593176,6,P-GPS,
84900,2021-10-10 00:31:51,33.8823935456966,-118.37117837725,4.593176,,,86.125943700912,5.577428,3.2659324,43.572507956,55.170933524,15,5,8.361,87.438279700912,5.905512,11.408394,43.572507956,3.131716,0.894776,0,280.7, -3.4, -18.2,0,0,1024,1024,1030,364,0,0,1,-100,263.8,0,0,95,4.166,4.154,0,0,0,0,3.369,83.48,86.125943700912,4.593176,6,P-GPS,
85000,2021-10-10 00:31:51,33.8823946524913,-118.37117790582,4.593176,,,86.125943700912,5.577428,2.5501116,43.954725816,55.599083144,15,5,8.361,87.438279700912,5.905512,11.408394,43.954725816,2.460634,0.671082,0,278.9, -4.9, -18,0,0,1024,1024,1024,364,0,0,0,-100,260.4,0,0,95,4.166,4.154,0,0,0,0,3.369,83.48,86.125943700912,4.593176,6,P-GPS,
85100,2021-10-10 00:31:51,33.8823953892385,-118.371177534713,4.593176,,,86.125943700912,5.577428,2.5501116,44.20767858,55.890421736,15,5,8.326,87.438279700912,5.905512,11.408394,44.20767858,1.789552,0.671082,0,275.2, -6.6, -15.7,0,0,1024,1024,1073,364,0,0,7,-100,255.8,0,0,95,4.167,4.162,0,0,0,0,4.202,83.66,86.125943700912,4.593176,6,P-GPS,
85200,2021-10-10 00:31:51,33.8823956710896,-118.371177284176,4.593176,,,86.125943700912,5.577428,1.2974252,44.300526352,56.018374496,15,5,8.326,87.438279700912,5.905512,11.408394,44.300526352,1.11847,0.671082,0,270.7, -7.1, -11.7,0,0,1024,1024,1096,364,0,0,11,-100,251.1,0,0,95,4.167,4.162,0,0,0,0,4.202,83.66,86.125943700912,4.593176,6,P-GPS,
85300,2021-10-10 00:31:51,33.8823944276619,-118.371177981929,4.593176,,,86.125943700912,5.577428,1.006623,43.87631374,56.518702596,15,5,8.326,87.438279700912,5.905512,11.408394,44.300526352,0.894776,0.447388,0,265.7, -7, -8.6,0,0,1024,1024,1188,1024,0,0,25,0,246.3,0,0,95,4.167,4.162,0,0,0,0,4.202,83.66,86.125943700912,4.593176,6,P-GPS,
85400,2021-10-10 00:31:51,33.8823944034827,-118.371177865769,4.593176,,,86.125943700912,5.577428,0.8052984,43.86319038,56.55511992,15,5,8.326,87.438279700912,5.905512,11.408394,44.300526352,0.671082,0.447388,0,260.8, -6.7, -6.2,0,0,1024,1024,1408,1471,0,0,58,68,242.3,0,0,95,4.167,4.162,0,0,0,0,4.202,83.66,86.125943700912,4.593176,6,P-GPS,
85500,2021-10-10 00:31:51,33.8823943053462,-118.371177771155,4.593176,,,86.125943700912,5.577428,0.6263432,43.824148384,56.60105168,15,5,8.326,87.438279700912,5.905512,11.408394,44.300526352,0.447388,0.447388,-0.223694,257.7, -6.5, -4.8,0,0,1024,1024,1408,1684,0,0,58,100,240.6,0,0,95,4.167,4.162,0,0,0,0,4.202,83.66,86.125943700912,4.593176,6,P-GPS,
85600,2021-10-10 00:31:52,33.8823942157427,-118.371177650659,4.593176,,,86.125943700912,5.905512,0.3131716,43.787074892,56.649936196,15,5,8.326,87.438279700912,5.905512,11.408394,44.300526352,0.223694,0.223694,-0.894776,256.7, -6.3, -3.1,0,0,1024,1024,1415,1684,0,0,59,100,241.6,0,0,95,4.167,4.162,0,0,0,0,4.202,83.66,86.125943700912,4.593176,6,P-GPS,
85700,2021-10-10 00:31:52,33.8823934082038,-118.371178210386,4.92126,,,86.454027700912,5.905512,0.3131716,43.516405592,56.98983122,15,5,8.326,87.438279700912,5.905512,11.408394,44.300526352,0.223694,0.223694,-1.789552,258.8, -6.6, -2.5,0,0,1024,1024,1415,1684,0,0,59,100,245.6,0,0,95,4.167,4.162,0,0,0,0,4.202,83.66,86.454027700912,4.92126,6,P-GPS,
85800,2021-10-10 00:31:52,33.8823934402516,-118.371178144665,5.249344,,,86.782111700912,6.233596,0.3131716,43.52526386,57.0127971,15,5,8.326,87.438279700912,5.905512,11.408394,44.300526352,0.223694,0.223694,-2.23694,263.1, -6.4, -2.1,0,0,1024,1024,1385,1684,0,0,55,100,250.3,0,0,95,4.167,4.162,0,0,0,0,4.202,83.66,86.782111700912,5.249344,6,P-GPS,
85900,2021-10-10 00:31:52,33.8823934679482,-118.371178090491,5.577428,,,87.110195700912,6.889764,0.223694,43.533137876,57.032154056,15,5,8.326,87.438279700912,5.905512,11.408394,44.300526352,0,0.223694,-2.684328,267.7, -5.8, -2.8,0,0,1024,1024,1059,1051,0,0,5,4,255.1,0,0,95,4.167,4.162,0,0,0,0,4.202,83.66,87.110195700912,5.577428,6,P-GPS,
86000,2021-10-10 00:31:52,33.8823935308843,-118.37117800159,5.905512,,,87.438279700912,7.217848,0.223694,43.552494832,57.067587128,15,5,8.326,87.438279700912,5.905512,11.408394,44.300526352,0,0.223694,-2.23694,272.2, -5.5, -2.4,0,0,1024,1024,1024,1024,0,0,0,0,258,0,0,95,4.167,4.162,0,0,0,0,4.202,83.66,87.438279700912,5.905512,6,P-GPS,
86100,2021-10-10 00:31:52,33.8823939798658,-118.371178073922,6.233596,,,87.766363700912,7.545932,0.223694,43.717849168,57.232941464,15,5,8.318,87.766363700912,6.233596,11.408394,44.300526352,0,0.223694,-1.565858,274.3, -5.5, -2.4,0,0,1024,1024,1024,1024,0,0,0,0,259.3,0,0,95,4.127,4.116,0,0,0,0,4.152,83.48,87.766363700912,6.233596,6,P-GPS,
86200,2021-10-10 00:31:52,33.8823940545397,-118.371178010009,6.56168,,,88.094447700912,7.545932,0.3131716,43.742455468,57.266406032,15,5,8.318,88.094447700912,6.56168,11.408394,44.300526352,0.223694,0.223694,-0.894776,275.1, -5.4, -2.8,0,0,1024,1024,1024,1024,0,0,0,0,259.5,0,0,95,4.127,4.116,0,0,0,0,4.152,83.48,88.094447700912,6.56168,6,P-GPS,
86300,2021-10-10 00:31:52,33.8823941328874,-118.37117794313,6.56168,,,88.094447700912,7.545932,0.3131716,43.76804602,57.301182936,15,5,8.318,88.094447700912,6.56168,11.408394,44.300526352,0.223694,0.223694,-0.447388,275.2, -5.4, -2.9,0,0,1024,1024,1089,364,0,0,10,-100,259.5,0,0,95,4.127,4.116,0,0,0,0,4.152,83.48,88.094447700912,6.56168,6,P-GPS,
86400,2021-10-10 00:31:52,33.8823942198463,-118.371177853723,6.889764,,,88.422531700912,7.874016,0.3131716,43.796261244,57.343177688,15,5,8.318,88.422531700912,6.889764,11.408394,44.300526352,0.223694,0.223694,-0.223694,275.1, -5.2, -3,0,0,1024,1024,1067,364,0,0,7,-100,259.2,0,0,95,4.127,4.116,0,0,0,0,4.152,83.48,88.422531700912,6.889764,6,P-GPS,
86500,2021-10-10 00:31:52,33.8823947090049,-118.371177747833,6.889764,,,88.422531700912,7.874016,0.3131716,43.969489596,57.524280056,15,5,8.318,88.422531700912,6.889764,11.408394,44.300526352,0.223694,0.223694,-0.223694,273.8, -5.1, -3.3,0,0,1024,1024,1058,364,0,0,5,-100,256.1,0,0,95,4.127,4.116,0,0,0,0,4.152,83.48,88.422531700912,6.889764,6,P-GPS,
86600,2021-10-10 00:31:53,33.8823948177458,-118.371177597482,6.889764,,,88.422531700912,7.874016,0.3131716,44.002954164,57.584647512,15,5,8.318,88.422531700912,6.889764,11.408394,44.300526352,0.223694,0.223694,0,269.9, -5.3, -3.5,0,0,1024,1024,1058,364,0,0,5,-100,251.5,0,0,95,4.127,4.116,0,0,0,0,4.152,83.48,88.422531700912,6.889764,6,P-GPS,
86700,2021-10-10 00:31:53,33.8823949415988,-118.371177441289,6.889764,,,88.422531700912,7.874016,0.3131716,44.042324244,57.650264312,15,5,8.318,88.422531700912,6.889764,11.408394,44.300526352,0.223694,0.223694,0,265.3, -5.3, -3.7,0,0,1024,1024,1063,704,0,0,6,-48,246.7,0,0,95,4.127,4.116,0,0,0,0,4.152,83.48,88.422531700912,6.889764,6,P-GPS,
