latitude,longitude,altitude(feet),ascent(feet),speed(mph),distance(feet),time(millisecond),datetime(utc),satellites,voltage(v),max_altitude(feet),max_ascent(feet),max_speed(mph),max_distance(feet),compass_heading(degrees),isPhoto,isVideo,rc_elevator,rc_aileron,rc_throttle,rc_rudder,gimbal_heading(degrees),gimbal_pitch(degrees),battery_percent,voltageCell1,voltageCell2,voltageCell3,voltageCell4,voltageCell5,voltageCell6,flycStateRaw,flycState,message
41.2907101575435,-72.9622396306652,96.509710109308,0,0,0,0,2016-09-26 18:12:46,9,0,96.509710109308,0,0,0,213.3,0,0,1024,1024,1024,1024,213.6,0,95,4.236,4.233,4.227,4.233,0,0,6,GPS_Atti,
41.2907101386137,-72.9622396259227,96.509710109308,0,0,0.0070278217472,100,2016-09-26 18:12:46,9,0,96.509710109308,0,0,0.0070278217472,213.3,0,0,1024,1024,1024,1024,213.6,0,95,4.236,4.233,4.227,4.233,0,0,6,GPS_Atti,
41.2907102429825,-72.9622397278559,96.509710109308,0,0,0.04100721916,300,2016-09-26 18:12:46,9,0,96.509710109308,0,0,0.04100721916,213.3,0,0,1024,1024,1024,1024,213.6,0,95,4.236,4.233,4.227,4.233,0,0,6,GPS_Atti,
41.2907102546836,-72.9622398531985,96.509710109308,0,0,0.070552495696,400,2016-09-26 18:12:46,9,0,96.509710109308,0,0,0.070552495696,213.3,0,0,1024,1024,1024,1024,213.6,0,95,4.236,4.233,4.227,4.233,0,0,6,GPS_Atti,
41.2907102561776,-72.962239854751,96.509710109308,0,0,0.071194884168,500,2016-09-26 18:12:47,9,0,96.509710109308,0,0,0.071194884168,213.3,0,0,1024,1024,1024,1024,213.6,0,95,4.236,4.233,4.227,4.233,0,0,6,GPS_Atti,
41.2907103577378,-72.9622399563665,96.509710109308,0,0,0.115356302904,600,2016-09-26 18:12:47,9,0,96.509710109308,0,0,0.115356302904,213.3,0,0,1024,1024,1024,1024,213.6,0,95,4.236,4.233,4.227,4.233,0,0,6,GPS_Atti,
41.290710359324,-72.9622399579266,96.509710109308,0,0,0.116054137572,700,2016-09-26 18:12:47,9,0,96.509710109308,0,0,0.116054137572,213.3,0,0,1024,1024,1024,1024,213.6,0,95,4.236,4.233,4.227,4.233,0,0,6,GPS_Atti,Home Point Recorded
41.2907104432697,-72.9622401439029,96.509710109308,0,0,0.175109257572,800,2016-09-26 18:12:47,9,0,96.509710109308,0,0,0.175109257572,213.3,0,0,1024,1024,1024,1024,213.6,0,95,4.236,4.233,4.227,4.233,0,0,6,GPS_Atti,
41.2907105492621,-72.9622402476884,96.509710109308,0,0,0.221443248556,1000,2016-09-26 18:12:47,9,0,96.509710109308,0,0,0.221443248556,213.3,0,0,1024,1024,1024,1024,213.6,0,95,4.236,4.233,4.227,4.233,0,0,6,GPS_Atti,
41.2907105369327,-72.9622402510708,96.509710109308,0,0,0.219285112004,1100,2016-09-26 18:12:47,9,16.93,96.509710109308,0,0,0.221443248556,213.4,0,0,1024,1024,1024,1024,213.6,0,95,4.236,4.233,4.227,4.233,0,0,6,GPS_Atti,
41.2907105398279,-72.9622403532186,96.509710109308,0,0,0.242257881768,1200,2016-09-26 18:12:47,9,16.93,96.509710109308,0,0,0.242257881768,213.4,0,0,1024,1024,1024,1024,213.6,0,95,4.236,4.233,4.227,4.233,0,0,6,GPS_Atti,
41.2907106273492,-72.9622404507681,95.853542109308,-0.656168,0,0.282710310884,1400,2016-09-26 18:12:47,8,16.93,96.509710109308,0,0,0.282710310884,213.4,0,0,1024,1024,1024,1024,213.6,0,95,4.236,4.233,4.227,4.233,0,0,6,GPS_Atti,
41.2907106297206,-72.9622404537808,95.853542109308,-0.656168,0,0.283891741368,1500,2016-09-26 18:12:48,8,16.93,96.509710109308,0,0,0.283891741368,213.4,0,0,1024,1024,1024,1024,213.6,0,95,4.236,4.233,4.227,4.233,0,0,6,GPS_Atti,
41.2907107302678,-72.9622405646453,95.525458109308,-0.984252,0,0.33048229404,1700,2016-09-26 18:12:48,8,16.93,96.509710109308,0,0,0.33048229404,213.4,0,0,1024,1024,1024,1024,213.6,0,95,4.236,4.233,4.227,4.233,0,0,6,GPS_Atti,
41.2907107324493,-72.9622405668349,95.197374109308,-1.312336,0,0.33145342268,1800,2016-09-26 18:12:48,8,16.93,96.509710109308,0,0,0.33145342268,213.4,0,0,1024,1024,1024,1024,213.6,0,95,4.236,4.233,4.227,4.233,0,0,6,GPS_Atti,
41.2907107338844,-72.9622405677435,95.197374109308,-1.312336,0,0.33197507624,1900,2016-09-26 18:12:48,8,16.93,96.509710109308,0,0,0.33197507624,213.4,0,0,1024,1024,1024,1024,213.6,0,95,4.236,4.233,4.227,4.233,0,0,6,GPS_Atti,Taking off
41.2907108131553,-72.9622406416447,94.869290109308,-1.64042,0,0.36609581224,2000,2016-09-26 18:12:48,8,16.93,96.509710109308,0,0,0.36609581224,213.4,0,0,1024,1024,1024,1024,213.6,0,95,4.236,4.233,4.227,4.233,0,0,11,AutoTakeoff,Return-to-Home Altitude:98FT
41.2907108129707,-72.9622406413546,94.869290109308,-1.64042,0,0.3659941062,2100,2016-09-26 18:12:48,8,16.93,96.509710109308,0,0,0.36609581224,213.4,0,0,1024,1024,1024,1024,213.6,0,95,4.236,4.233,4.227,4.233,0,0,11,AutoTakeoff,
41.2907109127711,-72.9622407411642,94.869290109308,-1.64042,0,0.41061024936,2200,2016-09-26 18:12:48,8,16.93,96.509710109308,0,0,0.41061024936,213.5,0,0,1024,1024,1024,1024,213.6,0,95,4.236,4.233,4.227,4.233,0,0,11,AutoTakeoff,
41.2907108988468,-72.962240721651,94.869290109308,-1.64042,0,0.40323492104,2300,2016-09-26 18:12:48,8,16.9,96.509710109308,0,0,0.41061024936,213.4,0,0,1024,1024,1024,1024,213.6,0,95,4.228,4.222,4.214,4.222,0,0,11,AutoTakeoff,
41.290710899836,-72.9622407204915,94.541206109308,-1.968504,0,0.40324148272,2400,2016-09-26 18:12:48,8,16.9,96.509710109308,0,0,0.41061024936,213.5,0,0,1024,1024,1024,1024,213.6,0,95,4.228,4.222,4.214,4.222,0,0,11,AutoTakeoff,
41.2907109022678,-72.962240719268,94.541206109308,-1.968504,0,0.4035925326,2500,2016-09-26 18:12:49,8,16.9,96.509710109308,0,0,0.41061024936,213.4,0,0,1024,1024,1024,1024,213.6,0,95,4.228,4.222,4.214,4.222,0,0,11,AutoTakeoff,
41.2907110330216,-72.9622408274968,94.213122109308,-2.296588,0,0.45790355796,2600,2016-09-26 18:12:49,8,16.9,96.509710109308,0,0,0.45790355796,213.5,0,0,1024,1024,1024,1024,213.6,0,95,4.228,4.222,4.214,4.222,0,0,11,AutoTakeoff,
41.2907110378673,-72.9622408222267,93.556954109308,-2.952756,0,0.45810697004,2700,2016-09-26 18:12:49,8,16.9,96.509710109308,0,0,0.45810697004,213.4,0,0,1024,1024,1024,1024,213.6,0,95,4.228,4.222,4.214,4.222,0,0,11,AutoTakeoff,
41.2907111473159,-72.9622409073017,93.228870109308,-3.28084,0,0.50288059352,2800,2016-09-26 18:12:49,8,16.9,96.509710109308,0,0,0.50288059352,213.3,0,0,1024,1024,1024,1024,213.6,0,95,4.228,4.222,4.214,4.222,0,0,11,AutoTakeoff,
41.2907111737581,-72.9622408865759,92.900786109308,-3.608924,0,0.50596786396,2900,2016-09-26 18:12:49,8,16.9,96.509710109308,0,0,0.50596786396,212.8,0,0,1024,1024,1024,1024,213.6,0,95,4.228,4.222,4.214,4.222,0,0,11,AutoTakeoff,
41.2907113187688,-72.9622408331308,92.244618109308,-4.265092,0,0.53680775996,3000,2016-09-26 18:12:49,8,16.9,96.509710109308,0,0,0.53680775996,212.3,0,0,1024,1024,1024,1024,213.5,0,95,4.228,4.222,4.214,4.222,0,0,11,AutoTakeoff,
41.2907113837058,-72.9622407563713,92.244618109308,-4.265092,0.223694,0.54347770768,3100,2016-09-26 18:12:49,8,16.9,96.509710109308,0,0.223694,0.54347770768,212.2,0,0,1024,1024,1024,1024,213.5,0,95,4.228,4.222,4.214,4.222,0,0,11,AutoTakeoff,
41.2907115338383,-72.9622406878869,92.244618109308,-4.265092,0.223694,0.57977692144,3200,2016-09-26 18:12:49,8,16.9,96.509710109308,0,0.223694,0.57977692144,212.1,0,0,1024,1024,1024,1024,213.5,0,95,4.228,4.222,4.214,4.222,0,0,11,AutoTakeoff,
41.2907116024406,-72.9622406784909,92.244618109308,-4.265092,0.223694,0.60035106908,3300,2016-09-26 18:12:49,8,16.872,96.509710109308,0,0.223694,0.60035106908,212.1,0,0,1024,1024,1024,1024,213.4,0,95,4.195,4.196,4.188,4.202,0,0,11,AutoTakeoff,
41.2907121123802,-72.9622407780573,92.572702109308,-3.937008,0.223694,0.77950133728,3500,2016-09-26 18:12:49,9,16.872,96.509710109308,0,0.223694,0.77950133728,212.5,0,0,1024,1024,1024,1024,213.4,0,95,4.195,4.196,4.188,4.202,0,0,11,AutoTakeoff,
41.2907123635325,-72.9622408307875,92.572702109308,-3.937008,0.223694,0.86949805932,3600,2016-09-26 18:12:50,9,16.872,96.509710109308,0,0.223694,0.86949805932,212.7,0,0,1024,1024,1024,1024,213.4,0,95,4.195,4.196,4.188,4.202,0,0,11,AutoTakeoff,
41.2907125381262,-72.9622409013232,92.572702109308,-3.937008,0.223694,0.93580055488,3700,2016-09-26 18:12:50,9,16.872,96.509710109308,0,0.223694,0.93580055488,212.9,0,0,1024,1024,1024,1024,213.4,0,95,4.195,4.196,4.188,4.202,0,0,11,AutoTakeoff,
41.2907126673601,-72.9622409271401,92.900786109308,-3.608924,0.223694,0.98226053012,3800,2016-09-26 18:12:50,9,16.872,96.509710109308,0,0.223694,0.98226053012,213.2,0,0,1024,1024,1024,1024,213.4,0,95,4.195,4.196,4.188,4.202,0,0,11,AutoTakeoff,
41.290712877327,-72.962240986711,93.228870109308,-3.28084,0.223694,1.05965882656,3900,2016-09-26 18:12:50,9,16.872,96.509710109308,0,0.223694,1.05965882656,213.2,0,0,1024,1024,1024,1024,213.4,0,95,4.195,4.196,4.188,4.202,0,0,11,AutoTakeoff,
41.2907131427536,-72.9622410444478,93.228870109308,-3.28084,0,1.15605646744,4000,2016-09-26 18:12:50,9,16.872,96.509710109308,0,0.223694,1.15605646744,213.3,0,0,1024,1024,1024,1024,213.4,0,95,4.195,4.196,4.188,4.202,0,0,11,AutoTakeoff,
41.2907132188789,-72.9622411259279,93.556954109308,-2.952756,0,1.18976709844,4100,2016-09-26 18:12:50,9,16.872,96.509710109308,0,0.223694,1.18976709844,213.2,0,0,1024,1024,1141,1024,213.4,0,95,4.195,4.196,4.188,4.202,0,0,11,AutoTakeoff,
41.2907133880991,-72.9622412092855,93.885038109308,-2.624672,0,1.25560043388,4200,2016-09-26 18:12:50,9,16.872,96.509710109308,0,0.223694,1.25560043388,213,0,0,1024,1024,1330,1024,213.4,0,95,4.195,4.196,4.188,4.202,0,0,11,AutoTakeoff,
41.290713408498,-72.9622412876183,94.213122109308,-2.296588,0,1.2701115892,4300,2016-09-26 18:12:50,9,16.872,96.509710109308,0,0.223694,1.2701115892,212.8,0,0,1024,1024,1322,1024,213.4,0,95,4.195,4.196,4.188,4.202,0,0,11,AutoTakeoff,
41.2907134678232,-72.9622413739401,94.541206109308,-1.968504,0,1.29886487096,4400,2016-09-26 18:12:50,9,16.752,96.509710109308,0,0.223694,1.29886487096,212.6,0,0,1024,1024,1322,1024,213.4,0,95,4.166,4.149,4.132,4.139,0,0,11,AutoTakeoff,
41.2907134280106,-72.9622412817527,94.869290109308,-1.64042,0,1.27619098572,4500,2016-09-26 18:12:51,9,16.752,96.509710109308,0,0.223694,1.29886487096,212.8,0,0,1024,1024,1354,1024,213.3,0,95,4.166,4.149,4.132,4.139,0,0,11,AutoTakeoff,
41.2907135339542,-72.962241615247,95.197374109308,-1.312336,0.223694,1.3466699906,4600,2016-09-26 18:12:51,9,16.752,96.509710109308,0,0.223694,1.3466699906,212.5,0,0,1024,1024,1358,1024,213.3,0,95,4.166,4.149,4.132,4.139,0,0,11,AutoTakeoff,
41.2907134840405,-72.9622416793428,95.853542109308,-0.656168,0.223694,1.33731631576,4700,2016-09-26 18:12:51,9,16.752,96.509710109308,0,0.223694,1.3466699906,212.4,0,0,1024,1024,1353,1024,213.3,0,95,4.166,4.149,4.132,4.139,0,0,11,AutoTakeoff,
41.2907135764729,-72.9622421413168,96.181626109308,-0.328084,0.223694,1.42467524244,4800,2016-09-26 18:12:51,9,16.752,96.509710109308,0,0.223694,1.42467524244,211.9,0,0,1024,1024,1024,1024,213.3,0,95,4.166,4.149,4.132,4.139,0,0,11,AutoTakeoff,
41.2907135387014,-72.9622423634756,96.509710109308,0,0.223694,1.44327760524,4900,2016-09-26 18:12:51,9,16.752,96.509710109308,0,0.223694,1.44327760524,212.1,0,0,1024,1024,1024,1024,213.3,0,95,4.166,4.149,4.132,4.139,0,0,11,AutoTakeoff,
41.2907136016087,-72.9622430740843,97.165878109308,0.656168,0.223694,1.57163390856,5100,2016-09-26 18:12:51,9,16.752,97.165878109308,0.656168,0.223694,1.57163390856,212.6,0,0,1024,1024,1024,1024,213.3,0,95,4.166,4.149,4.132,4.139,0,0,11,AutoTakeoff,
41.2907135869897,-72.9622437493634,97.822046109308,1.312336,0.223694,1.68535438464,5300,2016-09-26 18:12:51,9,16.752,97.822046109308,1.312336,0.223694,1.68535438464,212.1,0,0,1024,1024,1280,1024,213.2,0,95,4.166,4.149,4.132,4.139,0,0,11,AutoTakeoff,
41.2907137471947,-72.9622441031971,98.150130109308,1.64042,0.223694,1.79403549048,5400,2016-09-26 18:12:51,9,16.752,98.150130109308,1.64042,0.223694,1.79403549048,212.3,0,0,1024,1024,1420,998,213.2,0,95,4.166,4.149,4.132,4.139,0,0,11,AutoTakeoff,
41.2907136849193,-72.9622442342364,98.478214109308,1.968504,0,1.80248037264,5500,2016-09-26 18:12:51,9,16.752,98.478214109308,1.968504,0.223694,1.80248037264,212.2,0,0,1024,1024,1437,1024,213.2,0,95,4.166,4.149,4.132,4.139,0,0,11,AutoTakeoff,
41.2907135066546,-72.9622444322042,98.806298109308,2.296588,0.223694,1.79602039868,5600,2016-09-26 18:12:52,9,15.946,98.806298109308,2.296588,0.223694,1.80248037264,212.1,0,0,1024,1024,1470,1024,213.2,0,95,4.02,4.021,3.918,3.964,0,0,11,AutoTakeoff,
41.290713497007,-72.9622445744987,99.462466109308,2.952756,0.223694,1.82244756488,5700,2016-09-26 18:12:52,9,15.946,99.462466109308,2.952756,0.223694,1.82244756488,212.2,0,0,1024,1024,1494,1024,213.2,0,95,4.02,4.021,3.918,3.964,0,0,11,AutoTakeoff,
41.2907131687216,-72.9622445892104,99.790550109308,3.28084,0.223694,1.74778220816,5800,2016-09-26 18:12:52,9,15.946,99.790550109308,3.28084,0.223694,1.82244756488,212.5,0,0,1024,1024,1490,1024,213.2,0,95,4.02,4.021,3.918,3.964,0,0,11,AutoTakeoff,
41.2907130068186,-72.9622445654214,100.11863410931,3.608924,0.223694,1.70609257428,5900,2016-09-26 18:12:52,9,15.946,100.11863410931,3.608924,0.223694,1.82244756488,212.3,0,0,1024,1024,1485,1024,213.2,0,95,4.02,4.021,3.918,3.964,0,0,11,AutoTakeoff,
41.2907127006651,-72.9622446434691,100.77480210931,4.265092,0.447388,1.65811028928,6000,2016-09-26 18:12:52,9,15.946,100.77480210931,4.265092,0.447388,1.82244756488,212.1,0,0,1024,1024,1480,1024,213.1,0,95,4.02,4.021,3.918,3.964,0,0,11,AutoTakeoff,
41.2907125189624,-72.9622445821836,101.10288610931,4.593176,0.223694,1.60773627192,6100,2016-09-26 18:12:52,9,15.946,101.10288610931,4.593176,0.447388,1.82244756488,212.3,0,0,1024,1024,1474,1024,213.1,0,95,4.02,4.021,3.918,3.964,0,0,11,AutoTakeoff,
41.2907124077449,-72.9622447112163,101.75905410931,5.249344,0.223694,1.6167323352,6200,2016-09-26 18:12:52,9,15.946,101.75905410931,5.249344,0.447388,1.82244756488,212.2,0,0,1024,1024,1470,1024,213.1,0,95,4.02,4.021,3.918,3.964,0,0,11,AutoTakeoff,
41.2907122269956,-72.962244913433,102.08713810931,5.577428,0.223694,1.63321199452,6300,2016-09-26 18:12:52,9,15.946,102.08713810931,5.577428,0.447388,1.82244756488,212.2,0,0,1024,1024,1472,1024,213.1,0,95,4.02,4.021,3.918,3.964,0,0,11,AutoTakeoff,
41.2907118150239,-72.9622446877469,102.74330610931,6.233596,0.223694,1.51249020588,6400,2016-09-26 18:12:52,9,15.946,102.74330610931,6.233596,0.447388,1.82244756488,212.2,0,0,1024,1024,1481,1024,213.1,0,95,4.02,4.021,3.918,3.964,0,0,11,AutoTakeoff,
41.2907116829356,-72.9622445991596,103.07139010931,6.56168,0.223694,1.47136487648,6500,2016-09-26 18:12:53,9,15.946,103.07139010931,6.56168,0.447388,1.82244756488,212.1,0,0,1024,1024,1481,1024,213.1,0,95,4.02,4.021,3.918,3.964,0,0,11,AutoTakeoff,
41.2907113828633,-72.9622446401699,103.72755810931,7.217848,0.223694,1.444225768,6600,2016-09-26 18:12:53,9,15.686,103.72755810931,7.217848,0.447388,1.82244756488,212.3,0,0,1024,1024,1494,1024,213.1,0,95,3.915,3.935,3.927,3.952,0,0,11,AutoTakeoff,
41.2907112762124,-72.9622445034913,104.05564210931,7.545932,0.3131716,1.3967848216,6700,2016-09-26 18:12:53,9,15.686,104.05564210931,7.545932,0.447388,1.82244756488,212.3,0,0,1024,1024,1486,1024,213,0,95,3.915,3.935,3.927,3.952,0,0,6,GPS_Atti,
41.29071082847,-72.9622436684259,105.36797810931,8.858268,0.4921268,1.1336450494,6900,2016-09-26 18:12:53,9,15.686,105.36797810931,8.858268,0.4921268,1.82244756488,212,0,0,1024,1024,1474,1024,213,0,95,3.915,3.935,3.927,3.952,0,0,6,GPS_Atti,
41.2907107527143,-72.9622434415095,106.02414610931,9.514436,0.4921268,1.06702431236,7000,2016-09-26 18:12:53,9,15.686,106.02414610931,9.514436,0.4921268,1.82244756488,212.1,0,0,1024,1024,1469,1024,213,0,95,3.915,3.935,3.927,3.952,0,0,6,GPS_Atti,
41.2907106499284,-72.9622431163811,107.00839810931,10.498688,0.4921268,0.97230646156,7100,2016-09-26 18:12:53,9,15.686,107.00839810931,10.498688,0.4921268,1.82244756488,212.4,0,0,1024,1024,1477,1024,213,0,95,3.915,3.935,3.927,3.952,0,0,6,GPS_Atti,
41.2907105133215,-72.9622430752218,107.66456610931,11.154856,0.447388,0.95316276016,7200,2016-09-26 18:12:53,9,15.686,107.66456610931,11.154856,0.4921268,1.82244756488,212.4,0,0,1024,1024,1516,1024,213,0,95,3.915,3.935,3.927,3.952,0,0,6,GPS_Atti,
41.2907103872742,-72.9622427421944,108.64881810931,12.139108,0.447388,0.85709320328,7300,2016-09-26 18:12:53,9,15.686,108.64881810931,12.139108,0.4921268,1.82244756488,212.6,0,0,1024,1024,1516,1024,213,0,95,3.915,3.935,3.927,3.952,0,0,6,GPS_Atti,
41.2907100751569,-72.9622420526301,109.63307010931,13.12336,0.447388,0.6646325672,7400,2016-09-26 18:12:53,9,15.686,109.63307010931,13.12336,0.4921268,1.82244756488,212.9,0,0,1024,1024,1513,1024,213,0,95,3.915,3.935,3.927,3.952,0,0,6,GPS_Atti,
41.2907100353366,-72.9622417664816,110.61732210931,14.107612,0.447388,0.58720146236,7500,2016-09-26 18:12:53,9,15.686,110.61732210931,14.107612,0.4921268,1.82244756488,213,0,0,1024,1024,1514,1024,213,0,95,3.915,3.935,3.927,3.952,0,0,6,GPS_Atti,
41.2907096831702,-72.9622415089909,111.60157410931,15.091864,0.447388,0.54322836384,7600,2016-09-26 18:12:54,9,15.686,111.60157410931,15.091864,0.4921268,1.82244756488,213.2,0,0,1024,1024,1526,1024,213,0,95,3.915,3.935,3.927,3.952,0,0,6,GPS_Atti,
41.290709698237,-72.9622412854771,112.58582610931,16.076116,0.223694,0.48360893936,7700,2016-09-26 18:12:54,9,15.549,112.58582610931,16.076116,0.4921268,1.82244756488,213.9,0,0,1024,1024,1534,1024,213,0,95,3.903,3.902,3.872,3.901,0,0,6,GPS_Atti,
41.290709583767,-72.9622407477281,113.57007810931,17.060368,0.223694,0.37094489376,7800,2016-09-26 18:12:54,9,15.549,113.57007810931,17.060368,0.4921268,1.82244756488,214.3,0,0,1024,1024,1538,1024,213,0,95,3.903,3.902,3.872,3.901,0,0,6,GPS_Atti,
41.2907096107305,-72.9622404836023,114.88241410931,18.372704,0.223694,0.307367463904,7900,2016-09-26 18:12:54,9,15.549,114.88241410931,18.372704,0.4921268,1.82244756488,214.1,0,0,1024,1024,1533,1024,213.1,0,95,3.903,3.902,3.872,3.901,0,0,6,GPS_Atti,
41.2907099311373,-72.9622405568025,115.86666610931,19.356956,0.223694,0.266988525604,8000,2016-09-26 18:12:54,9,15.549,115.86666610931,19.356956,0.4921268,1.82244756488,213.8,0,0,1024,1024,1516,1024,213.1,0,95,3.903,3.902,3.872,3.901,0,0,6,GPS_Atti,
41.2907100556523,-72.96224046619,116.85091810931,20.341208,0.223694,0.2320456111,8100,2016-09-26 18:12:54,9,15.549,116.85091810931,20.341208,0.4921268,1.82244756488,213.5,0,0,1024,1024,1500,1024,213.1,0,95,3.903,3.902,3.872,3.901,0,0,6,GPS_Atti,
41.2907101704945,-72.9622402229933,118.16325410931,21.653544,0.223694,0.162447839844,8200,2016-09-26 18:12:54,9,15.549,118.16325410931,21.653544,0.4921268,1.82244756488,213.5,0,0,1024,1024,1500,1024,213.1,0,95,3.903,3.902,3.872,3.901,0,0,6,GPS_Atti,
41.2907103004298,-72.9622401488505,119.14750610931,22.637796,0.223694,0.151317590144,8300,2016-09-26 18:12:54,9,15.549,119.14750610931,22.637796,0.4921268,1.82244756488,213.6,0,0,1024,1024,1507,1024,213.1,0,95,3.903,3.902,3.872,3.901,0,0,6,GPS_Atti,
41.2907105335934,-72.9622400610018,120.13175810931,23.622048,0.223694,0.180946200016,8400,2016-09-26 18:12:54,9,15.549,120.13175810931,23.622048,0.4921268,1.82244756488,213.6,0,0,1024,1024,1493,1024,213.1,0,95,3.903,3.902,3.872,3.901,0,0,6,GPS_Atti,
41.2907108608498,-72.9622396028109,122.10026210931,25.590552,0.223694,0.256714575144,8600,2016-09-26 18:12:55,10,15.549,122.10026210931,25.590552,0.4921268,1.82244756488,212.9,0,0,1024,1024,1409,1024,213.1,0,95,3.903,3.902,3.872,3.901,0,0,6,GPS_Atti,
41.2907109988972,-72.962239553958,123.08451410931,26.574804,0.223694,0.307686689636,8700,2016-09-26 18:12:55,10,15.549,123.08451410931,26.574804,0.4921268,1.82244756488,213.1,0,0,1024,1024,1399,1024,213.1,0,95,3.903,3.902,3.872,3.901,0,0,6,GPS_Atti,
41.2907113590314,-72.9622395176061,124.06876610931,27.559056,0.223694,0.43945539464,8800,2016-09-26 18:12:55,10,15.311,124.06876610931,27.559056,0.4921268,1.82244756488,212.6,0,0,1024,1024,1413,1024,213.1,0,95,3.869,3.888,3.846,3.832,0,0,6,GPS_Atti,
41.2907114857462,-72.9622395420288,124.72493410931,28.215224,0.223694,0.4852034276,8900,2016-09-26 18:12:55,10,15.311,124.72493410931,28.215224,0.4921268,1.82244756488,212.6,0,0,1024,1024,1417,1024,213.1,0,95,3.869,3.888,3.846,3.832,0,0,6,GPS_Atti,
41.290711624957,-72.9622397090743,125.38110210931,28.871392,0,0.53581694628,9000,2016-09-26 18:12:55,10,15.311,125.38110210931,28.871392,0.4921268,1.82244756488,212.5,0,0,1024,1024,1376,1024,213.1,0,95,3.869,3.888,3.846,3.832,0,0,6,GPS_Atti,
41.2907118227683,-72.9622397216153,126.36535410931,29.855644,0,0.60806760476,9100,2016-09-26 18:12:55,10,15.311,126.36535410931,29.855644,0.4921268,1.82244756488,212.7,0,0,1024,1024,1350,1024,213.1,0,95,3.869,3.888,3.846,3.832,0,0,6,GPS_Atti,
41.2907122233844,-72.9622402528624,127.02152210931,30.511812,0,0.77277889612,9200,2016-09-26 18:12:55,10,15.311,127.02152210931,30.511812,0.4921268,1.82244756488,213.1,0,0,1024,1024,1344,1024,213.1,0,95,3.869,3.888,3.846,3.832,0,0,6,GPS_Atti,
41.290712296806,-72.9622403339581,127.67769010931,31.16798,0,0.803969842,9300,2016-09-26 18:12:55,10,15.311,127.67769010931,31.16798,0.4921268,1.82244756488,213.3,0,0,1024,1024,1291,1024,213.1,0,95,3.869,3.888,3.846,3.832,0,0,6,GPS_Atti,
41.2907124229103,-72.9622405225132,128.33385810931,31.824148,0,0.86191931892,9400,2016-09-26 18:12:55,10,15.311,128.33385810931,31.824148,0.4921268,1.82244756488,213.3,0,0,1024,1024,1279,1024,213.1,0,95,3.869,3.888,3.846,3.832,0,0,6,GPS_Atti,
41.2907123889098,-72.9622405797101,128.99002610931,32.480316,0,0.8546752242,9500,2016-09-26 18:12:56,10,15.311,128.99002610931,32.480316,0.4921268,1.82244756488,213.7,0,0,1024,1024,1308,1024,213.1,0,95,3.869,3.888,3.846,3.832,0,0,6,GPS_Atti,
41.2907125605098,-72.9622409444906,129.64619410931,33.136484,0.223694,0.9478182718,9600,2016-09-26 18:12:56,10,15.311,129.64619410931,33.136484,0.4921268,1.82244756488,213.6,0,0,1024,1024,1328,1024,213.1,0,95,3.869,3.888,3.846,3.832,0,0,6,GPS_Atti,
41.2907124866382,-72.9622409978767,130.30236210931,33.792652,0.223694,0.92875331056,9700,2016-09-26 18:12:56,10,15.311,130.30236210931,33.792652,0.4921268,1.82244756488,213.1,0,0,1024,1024,1317,1024,213.1,0,95,3.869,3.888,3.846,3.832,0,0,6,GPS_Atti,
41.2907126885509,-72.9622415076212,131.28661410931,34.776904,0.223694,1.05711289472,9900,2016-09-26 18:12:56,10,15.374,131.28661410931,34.776904,0.4921268,1.82244756488,212.6,0,0,1024,1024,1306,1024,213.1,0,95,3.894,3.902,3.879,3.896,0,0,6,GPS_Atti,
41.2907124899025,-72.9622415184498,132.27086610931,35.761156,0,0.99596787964,10100,2016-09-26 18:12:56,10,15.374,132.27086610931,35.761156,0.4921268,1.82244756488,212.3,0,0,1024,1024,1329,1024,213.1,0,95,3.894,3.902,3.879,3.896,0,0,6,GPS_Atti,
41.29071231377,-72.9622416247028,133.25511810931,36.745408,0,0.9579724716,10300,2016-09-26 18:12:56,10,15.374,133.25511810931,36.745408,0.4921268,1.82244756488,212.6,0,0,1024,1024,1331,1024,213.1,0,95,3.894,3.902,3.879,3.896,0,0,6,GPS_Atti,
41.2907122598929,-72.9622417119649,134.56745410931,38.057744,0,0.95597772088,10600,2016-09-26 18:12:57,10,15.374,134.56745410931,38.057744,0.4921268,1.82244756488,212.5,0,0,1024,1024,1353,1024,213.1,0,95,3.894,3.902,3.879,3.896,0,0,6,GPS_Atti,
41.2907126051682,-72.9622421423248,135.87979010931,39.37008,0,1.12763455052,10800,2016-09-26 18:12:57,10,15.374,135.87979010931,39.37008,0.4921268,1.82244756488,212.4,0,0,1024,1024,1354,1024,213.1,0,95,3.894,3.902,3.879,3.896,0,0,6,GPS_Atti,
41.2907131015824,-72.9622425125221,136.86404210931,40.354332,0,1.33337602692,11000,2016-09-26 18:12:57,10,15.374,136.86404210931,40.354332,0.4921268,1.82244756488,211.6,0,0,1024,1024,1343,1024,213,0,95,3.894,3.902,3.879,3.896,0,0,6,GPS_Atti,
41.2907135905199,-72.9622426885567,138.17637810931,41.666668,0.223694,1.50715556004,11200,2016-09-26 18:12:57,11,15.374,138.17637810931,41.666668,0.4921268,1.82244756488,211.1,0,0,1024,1024,1362,1024,212.9,0,95,3.894,3.902,3.879,3.896,0,0,6,GPS_Atti,
41.2907141519536,-72.9622429581981,139.16063010931,42.65092,0,1.71930451696,11400,2016-09-26 18:12:57,11,15.374,139.16063010931,42.65092,0.4921268,1.82244756488,211.5,0,0,1024,1024,1360,1024,212.8,0,95,3.894,3.902,3.879,3.896,0,0,6,GPS_Atti,
41.2907142117111,-72.9622429394808,139.81679810931,43.307088,0,1.73513456996,11500,2016-09-26 18:12:58,11,15.374,139.81679810931,43.307088,0.4921268,1.82244756488,211.6,0,0,1024,1024,1372,1024,212.8,0,95,3.894,3.902,3.879,3.896,0,0,6,GPS_Atti,
41.2907146840099,-72.9622431683129,140.47296610931,43.963256,0,1.9151739458,11600,2016-09-26 18:12:58,11,15.374,140.47296610931,43.963256,0.4921268,1.9151739458,212.2,0,0,1024,1024,1406,1024,212.8,0,95,3.894,3.902,3.879,3.896,0,0,6,GPS_Atti,
41.2907146665403,-72.9622431402986,141.12913410931,44.619424,0,1.90579402424,11700,2016-09-26 18:12:58,11,15.679,141.12913410931,44.619424,0.4921268,1.9151739458,212,0,0,1024,1024,1391,1024,212.8,0,95,3.929,3.873,3.833,3.9,0,0,6,GPS_Atti,
41.2907147743762,-72.9622433563639,141.78530210931,45.275592,0,1.96990491868,11800,2016-09-26 18:12:58,11,15.679,141.78530210931,45.275592,0.4921268,1.96990491868,211.7,0,0,1024,1024,1379,1024,212.8,0,95,3.929,3.873,3.833,3.9,0,0,6,GPS_Atti,
41.2907147847815,-72.9622434494577,142.44147010931,45.93176,0.223694,1.9864830032,11900,2016-09-26 18:12:58,11,15.679,142.44147010931,45.93176,0.4921268,1.9864830032,212,0,0,1024,1024,1388,1024,212.7,0,95,3.929,3.873,3.833,3.9,0,0,6,GPS_Atti,
41.2907148134059,-72.9622436281865,143.09763810931,46.587928,0.223694,2.02150268936,12000,2016-09-26 18:12:58,11,15.679,143.09763810931,46.587928,0.4921268,2.02150268936,212.2,0,0,1024,1024,1409,1024,212.8,0,95,3.929,3.873,3.833,3.9,0,0,6,GPS_Atti,
41.2907146799759,-72.9622436402513,143.75380610931,47.244096,0.223694,1.98260176948,12100,2016-09-26 18:12:58,11,15.679,143.75380610931,47.244096,0.4921268,2.02150268936,213,0,0,1024,1024,1403,1024,212.8,0,95,3.929,3.873,3.833,3.9,0,0,6,GPS_Atti,
41.290714893792,-72.9622441988953,144.40997410931,47.900264,0.223694,2.13409455648,12200,2016-09-26 18:12:58,11,15.679,144.40997410931,47.900264,0.4921268,2.13409455648,213.9,0,0,1024,1024,1379,1024,212.8,0,95,3.929,3.873,3.833,3.9,0,0,6,GPS_Atti,
41.2907147711718,-72.9622442289708,145.06614210931,48.556432,0.223694,2.10296594656,12300,2016-09-26 18:12:58,11,15.679,145.06614210931,48.556432,0.4921268,2.13409455648,213.6,0,0,1024,1024,1387,1024,212.8,0,95,3.929,3.873,3.833,3.9,0,0,6,GPS_Atti,
41.290714745744,-72.9622447511071,145.72231010931,49.2126,0.3131716,2.18464245836,12400,2016-09-26 18:12:58,11,15.679,145.72231010931,49.2126,0.4921268,2.18464245836,213.4,0,0,1024,1024,1377,1024,212.8,0,95,3.929,3.873,3.833,3.9,0,0,6,GPS_Atti,
41.2907148222423,-72.9622451839571,146.37847810931,49.868768,0.4921268,2.28344167412,12500,2016-09-26 18:12:59,11,15.679,146.37847810931,49.868768,0.4921268,2.28344167412,213.8,0,0,1024,1024,1377,1024,212.8,0,95,3.929,3.873,3.833,3.9,0,0,6,GPS_Atti,
41.2907144425205,-72.9622457339496,147.69081410931,51.181104,0.4921268,2.28987212052,12700,2016-09-26 18:12:59,11,15.679,147.69081410931,51.181104,0.4921268,2.28987212052,213.5,0,0,1024,1024,1373,1024,212.8,0,95,3.929,3.873,3.833,3.9,0,0,6,GPS_Atti,
41.2907143763706,-72.9622463767065,148.01889810931,51.509188,0.7158208,2.40609915836,12800,2016-09-26 18:12:59,11,15.487,148.01889810931,51.509188,0.7158208,2.40609915836,213.5,0,0,1024,783,1370,1024,212.9,0,95,3.906,3.849,3.79,3.849,0,0,6,GPS_Atti,
41.2907140444947,-72.9622464585277,148.67506610931,52.165356,0.894776,2.34833668932,12900,2016-09-26 18:12:59,11,15.487,148.67506610931,52.165356,0.894776,2.40609915836,214,0,0,1024,801,1368,1024,212.9,0,95,3.906,3.849,3.79,3.849,0,0,6,GPS_Atti,
41.2907138244876,-72.9622468830646,149.33123410931,52.821524,1.11847,2.3963911528,13000,2016-09-26 18:12:59,11,15.487,149.33123410931,52.821524,1.11847,2.40609915836,214.3,0,0,1024,823,1352,1024,212.9,0,95,3.906,3.849,3.79,3.849,0,0,6,GPS_Atti,
41.2907132977853,-72.9622468285894,149.98740210931,53.477692,1.3645334,2.28172251396,13100,2016-09-26 18:12:59,11,15.487,149.98740210931,53.477692,1.3645334,2.40609915836,214.4,0,0,1024,824,1343,1024,213,0,95,3.906,3.849,3.79,3.849,0,0,6,GPS_Atti,
41.290712648517,-72.9622469994279,150.64357010931,54.13386,1.5882274,2.21508209188,13200,2016-09-26 18:12:59,11,15.487,150.64357010931,54.13386,1.5882274,2.40609915836,214.2,0,0,1024,842,1329,1024,213,0,95,3.906,3.849,3.79,3.849,0,0,6,GPS_Atti,
41.2907118781225,-72.9622467619506,150.97165410931,54.461944,2.0579848,2.05326778224,13300,2016-09-26 18:12:59,11,15.487,150.97165410931,54.461944,2.0579848,2.40609915836,214,0,0,1024,901,1310,1024,213,0,95,3.906,3.849,3.79,3.849,0,0,6,GPS_Atti,
41.2907108773653,-72.9622468401401,151.62782210931,55.118112,2.23694,1.99375990632,13400,2016-09-26 18:12:59,11,15.487,151.62782210931,55.118112,2.23694,2.40609915836,213.5,0,0,1024,1024,1303,1024,213,0,95,3.906,3.849,3.79,3.849,0,0,6,GPS_Atti,
41.2907098739907,-72.9622468493774,152.28399010931,55.77428,2.23694,1.98162079832,13500,2016-09-26 18:13:00,11,15.487,152.28399010931,55.77428,2.23694,2.40609915836,213.5,0,0,1024,1024,1372,1024,213,0,95,3.906,3.849,3.79,3.849,0,0,6,GPS_Atti,
41.2907089339326,-72.9622472213102,152.94015810931,56.430448,2.460634,2.12822841456,13600,2016-09-26 18:13:00,11,15.487,152.94015810931,56.430448,2.460634,2.40609915836,213.4,0,0,1024,1024,1382,1024,213,0,95,3.906,3.849,3.79,3.849,0,0,6,GPS_Atti,
41.2907078873223,-72.9622471780625,153.26824210931,56.758532,2.460634,2.2286582078,13700,2016-09-26 18:13:00,11,15.487,153.26824210931,56.758532,2.460634,2.40609915836,213.1,0,0,1024,1024,1393,1024,213,0,95,3.906,3.849,3.79,3.849,0,0,6,GPS_Atti,
41.2907065908499,-72.962248044644,153.92441010931,57.4147,2.460634,2.64834654144,13800,2016-09-26 18:13:00,10,15.402,153.92441010931,57.4147,2.460634,2.64834654144,212.5,0,0,1024,1024,1420,1024,213,0,95,3.885,3.825,3.787,3.831,0,0,6,GPS_Atti,
41.2907055579699,-72.9622482358165,154.58057810931,58.070868,2.5053728,2.89500337348,13900,2016-09-26 18:13:00,10,15.402,154.58057810931,58.070868,2.5053728,2.89500337348,212.5,0,0,1024,1024,1425,1024,213,0,95,3.885,3.825,3.787,3.831,0,0,6,GPS_Atti,
41.2907043208112,-72.9622489253236,155.23674610931,58.727036,2.3264176,3.3207350144,14000,2016-09-26 18:13:00,11,15.402,155.23674610931,58.727036,2.5053728,3.3207350144,212.2,0,0,1024,1024,1426,1024,213,0,95,3.885,3.825,3.787,3.831,0,0,6,GPS_Atti,
41.2907026110782,-72.9622505005462,156.54908210931,60.039372,1.9908766,4.0571195524,14200,2016-09-26 18:13:00,11,15.402,156.54908210931,60.039372,2.5053728,4.0571195524,211.9,0,0,1024,1024,1426,1024,213,0,95,3.885,3.825,3.787,3.831,0,0,6,GPS_Atti,
41.2907019450607,-72.9622510337177,157.20525010931,60.69554,1.6105968,4.3301182488,14300,2016-09-26 18:13:00,11,15.402,157.20525010931,60.69554,2.5053728,4.3301182488,212,0,0,1024,1024,1444,1024,213,0,95,3.885,3.825,3.787,3.831,0,0,6,GPS_Atti,
41.2907011138403,-72.9622518227782,157.86141810931,61.351708,1.4316416,4.6966208852,14400,2016-09-26 18:13:00,11,15.402,157.86141810931,61.351708,2.5053728,4.6966208852,212.5,0,0,1024,1024,1452,1024,212.9,0,95,3.885,3.825,3.787,3.831,0,0,6,GPS_Atti,
41.29070050804,-72.9622528360672,159.50183810931,62.992128,1.11847,5.0497376944,14600,2016-09-26 18:13:01,11,15.402,159.50183810931,62.992128,2.5053728,5.0497376944,212.6,0,0,1024,1024,1436,1024,212.9,0,95,3.885,3.825,3.787,3.831,0,0,6,GPS_Atti,
41.2906999276497,-72.9622531888558,160.48609010931,63.97638,1.11847,5.26738862,14700,2016-09-26 18:13:01,11,15.402,160.48609010931,63.97638,2.5053728,5.26738862,212.8,0,0,1024,1024,1419,1024,212.9,0,95,3.885,3.825,3.787,3.831,0,0,6,GPS_Atti,
41.2906997078689,-72.9622539753955,162.12651010931,65.6168,0.9171454,5.477198338,14900,2016-09-26 18:13:01,11,15.402,162.12651010931,65.6168,2.5053728,5.477198338,213.1,0,0,1024,1024,1419,1024,212.9,0,95,3.885,3.825,3.787,3.831,0,0,6,GPS_Atti,
41.2906996821885,-72.9622540026294,163.11076210931,66.601052,0.7158208,5.4890749788,15000,2016-09-26 18:13:01,11,15.402,163.11076210931,66.601052,2.5053728,5.4890749788,213.3,0,0,1024,1024,1424,1024,212.9,0,95,3.885,3.825,3.787,3.831,0,0,6,GPS_Atti,
41.2906995544438,-72.9622544607346,163.76693010931,67.25722,0.9171454,5.6119096284,15100,2016-09-26 18:13:01,11,15.583,163.76693010931,67.25722,2.5053728,5.6119096284,213.3,0,0,1024,1024,1427,1024,212.9,0,95,3.875,3.895,3.895,3.931,0,0,6,GPS_Atti,
41.2906994109827,-72.9622550740619,165.40735010931,68.89764,0.894776,5.770341392,15300,2016-09-26 18:13:01,11,15.583,165.40735010931,68.89764,2.5053728,5.770341392,213.6,0,0,1024,1024,1427,1024,212.9,0,95,3.875,3.895,3.895,3.931,0,0,6,GPS_Atti,
41.2906995632165,-72.9622555440936,166.06351810931,69.553808,0.9171454,5.8285434936,15400,2016-09-26 18:13:01,11,15.583,166.06351810931,69.553808,2.5053728,5.8285434936,213.7,0,0,1024,1024,1421,1024,212.9,0,95,3.875,3.895,3.895,3.931,0,0,6,GPS_Atti,
41.2906994537329,-72.962256072983,167.04777010931,70.53806,0.9171454,5.963910952,15500,2016-09-26 18:13:02,11,15.583,167.04777010931,70.53806,2.5053728,5.963910952,213.3,0,0,1024,1024,1420,1024,213,0,95,3.875,3.895,3.895,3.931,0,0,6,GPS_Atti,
41.2906993503438,-72.9622563746581,167.70393810931,71.194228,0.9171454,6.051181296,15600,2016-09-26 18:13:02,11,15.583,167.70393810931,71.194228,2.5053728,6.051181296,213.4,0,0,1024,1024,1419,1024,213,0,95,3.875,3.895,3.895,3.931,0,0,6,GPS_Atti,
41.2906992352432,-72.9622569251682,168.68819010931,72.17848,0.9171454,6.1933729016,15700,2016-09-26 18:13:02,11,15.583,168.68819010931,72.17848,2.5053728,6.1933729016,213.7,0,0,1024,1024,1391,1024,213,0,95,3.875,3.895,3.895,3.931,0,0,6,GPS_Atti,
41.2906991808197,-72.9622575031554,169.34435810931,72.834648,0.9171454,6.3280513836,15800,2016-09-26 18:13:02,11,15.583,169.34435810931,72.834648,2.5053728,6.3280513836,213.5,0,0,1024,1024,1374,1024,213,0,95,3.875,3.895,3.895,3.931,0,0,6,GPS_Atti,
41.2906990093593,-72.9622577744523,170.00052610931,73.490816,0.894776,6.4252298644,15900,2016-09-26 18:13:02,11,15.583,170.00052610931,73.490816,2.5053728,6.4252298644,213.1,0,0,1024,1024,1375,1024,213,0,95,3.875,3.895,3.895,3.931,0,0,6,GPS_Atti,
41.2906990126888,-72.9622584990686,170.65669410931,74.146984,0.894776,6.5794293444,16000,2016-09-26 18:13:02,11,15.583,170.65669410931,74.146984,2.5053728,6.5794293444,213,0,0,1024,1024,1320,1024,213,0,95,3.875,3.895,3.895,3.931,0,0,6,GPS_Atti,
41.2906989595557,-72.9622590550945,171.31286210931,74.803152,0.894776,6.7117128132,16100,2016-09-26 18:13:02,11,15.583,171.31286210931,74.803152,2.5053728,6.7117128132,213.6,0,0,1024,1024,1248,1024,213,0,95,3.875,3.895,3.895,3.931,0,0,6,GPS_Atti,
41.2906989964245,-72.9622597062164,171.96903010931,75.45932,0.894776,6.8461944448,16200,2016-09-26 18:13:02,11,15.297,171.96903010931,75.45932,2.5053728,6.8461944448,213.6,0,0,1024,1024,1210,1024,213.1,0,95,3.836,3.833,3.796,3.856,0,0,6,GPS_Atti,
41.2906988502471,-72.9622601775127,172.62519810931,76.115488,1.11847,6.9818571788,16300,2016-09-26 18:13:02,11,15.297,172.62519810931,76.115488,2.5053728,6.9818571788,213.3,0,0,1024,1024,1196,1024,213.1,0,95,3.836,3.833,3.796,3.856,0,0,6,GPS_Atti,
41.2906988040274,-72.962261452528,173.28136610931,76.771656,0.894776,7.2763453772,16500,2016-09-26 18:13:02,11,15.297,173.28136610931,76.771656,2.5053728,7.2763453772,212.6,0,0,1024,1024,1183,1024,213.1,0,95,3.836,3.833,3.796,3.856,0,0,6,GPS_Atti,
41.2906986910956,-72.9622618449302,173.60945010931,77.09974,0.894776,7.3883204464,16600,2016-09-26 18:13:03,11,15.297,173.60945010931,77.09974,2.5053728,7.3883204464,212.6,0,0,1024,1024,1209,1024,213.1,0,95,3.836,3.833,3.796,3.856,0,0,6,GPS_Atti,
41.290698615995,-72.9622623322605,173.93753410931,77.427824,0.894776,7.514107852,16700,2016-09-26 18:13:03,11,15.297,173.93753410931,77.427824,2.5053728,7.514107852,212.5,0,0,1024,1024,1179,1024,213.1,0,95,3.836,3.833,3.796,3.856,0,0,6,GPS_Atti,
41.2906985394953,-72.9622629372485,174.26561810931,77.755908,0.7158208,7.6674543136,16800,2016-09-26 18:13:03,11,15.297,174.26561810931,77.755908,2.5053728,7.6674543136,212.7,0,0,1024,1024,1219,1024,213.1,0,95,3.836,3.833,3.796,3.856,0,0,6,GPS_Atti,
41.2906982511391,-72.9622632085994,174.59370210931,78.083992,0.671082,7.787729908,16900,2016-09-26 18:13:03,11,15.297,174.59370210931,78.083992,2.5053728,7.787729908,213.1,0,0,1024,1024,1251,1024,213.1,0,95,3.836,3.833,3.796,3.856,0,0,6,GPS_Atti,
41.2906982490791,-72.9622635442179,174.59370210931,78.083992,0.447388,7.864665606,17000,2016-09-26 18:13:03,11,15.297,174.59370210931,78.083992,2.5053728,7.864665606,212.7,0,0,1024,1024,1252,1024,213.1,0,95,3.836,3.833,3.796,3.856,0,0,6,GPS_Atti,
41.2906982014127,-72.9622638853849,174.92178610931,78.412076,0.447388,7.9523296508,17100,2016-09-26 18:13:03,11,15.297,174.92178610931,78.412076,2.5053728,7.9523296508,212.1,0,0,1024,1024,1266,1024,213.1,0,95,3.836,3.833,3.796,3.856,0,0,6,GPS_Atti,
41.2906981850997,-72.9622640398248,175.24987010931,78.74016,0.447388,7.9910107544,17200,2016-09-26 18:13:03,11,15.297,175.24987010931,78.74016,2.5053728,7.9910107544,212.4,0,0,1024,1024,1289,1024,213.1,0,95,3.836,3.833,3.796,3.856,0,0,6,GPS_Atti,
41.2906982273466,-72.9622643692025,175.57795410931,79.068244,0.447388,8.0584320164,17300,2016-09-26 18:13:03,11,15.366,175.57795410931,79.068244,2.5053728,8.0584320164,212.8,0,0,1024,1024,1317,1024,213,0,95,3.871,3.896,3.844,3.841,0,0,6,GPS_Atti,
41.2906984374709,-72.9622647664735,175.57795410931,79.068244,0.671082,8.1096131204,17400,2016-09-26 18:13:03,11,15.366,175.57795410931,79.068244,2.5053728,8.1096131204,213.4,0,0,1024,1024,1348,1024,213.1,0,95,3.871,3.896,3.844,3.841,0,0,6,GPS_Atti,
41.2906982847207,-72.962265029254,175.90603810931,79.396328,0.671082,8.2002299212,17500,2016-09-26 18:13:04,11,15.366,175.90603810931,79.396328,2.5053728,8.2002299212,213.1,0,0,1024,1024,1390,1024,213.1,0,95,3.871,3.896,3.844,3.841,0,0,6,GPS_Atti,
41.2906983987083,-72.9622652957949,176.56220610931,80.052496,0.447388,8.2406170616,17600,2016-09-26 18:13:04,11,15.366,176.56220610931,80.052496,2.5053728,8.2406170616,212.6,0,0,1024,1024,1381,1024,213.1,0,95,3.871,3.896,3.844,3.841,0,0,6,GPS_Atti,
41.2906984695501,-72.9622656165653,176.89029010931,80.38058,0.4921268,8.3025265124,17700,2016-09-26 18:13:04,11,15.366,176.89029010931,80.38058,2.5053728,8.3025265124,212.4,0,0,1024,1024,1391,1024,213.1,0,95,3.871,3.896,3.844,3.841,0,0,6,GPS_Atti,
41.2906986049313,-72.9622657331626,177.54645810931,81.036748,0.3131716,8.304790292,17800,2016-09-26 18:13:04,11,15.366,177.54645810931,81.036748,2.5053728,8.304790292,212.2,0,0,1024,1024,1355,1024,213.1,0,95,3.871,3.896,3.844,3.841,0,0,6,GPS_Atti,
41.2906987819847,-72.9622659579245,178.20262610931,81.692916,0.4921268,8.3255580092,17900,2016-09-26 18:13:04,11,15.366,178.20262610931,81.692916,2.5053728,8.3255580092,212.5,0,0,1024,1024,1336,1024,213.1,0,95,3.871,3.896,3.844,3.841,0,0,6,GPS_Atti,
41.2906992165078,-72.9622663276162,178.53071010931,82.021,0.6263432,8.3364832064,18000,2016-09-26 18:13:04,11,15.366,178.53071010931,82.021,2.5053728,8.3364832064,212.2,0,0,1024,1024,1395,1024,213,0,95,3.871,3.896,3.844,3.841,0,0,6,GPS_Atti,
41.2906999143939,-72.9622666370095,179.51496210931,83.005252,0.6263432,8.2932417352,18200,2016-09-26 18:13:04,11,15.366,179.51496210931,83.005252,2.5053728,8.3364832064,212.1,0,0,1024,1024,1370,1024,213,0,95,3.871,3.896,3.844,3.841,0,0,6,GPS_Atti,
41.2907001430065,-72.9622668772188,180.17113010931,83.66142,0.4921268,8.3150921296,18300,2016-09-26 18:13:04,11,15.366,180.17113010931,83.66142,2.5053728,8.3364832064,212,0,0,1024,1024,1350,1024,213,0,95,3.871,3.896,3.844,3.841,0,0,6,GPS_Atti,
41.2907005674375,-72.9622672339306,180.82729810931,84.317588,0.4921268,8.3368769072,18400,2016-09-26 18:13:04,11,15.439,180.82729810931,84.317588,2.5053728,8.3368769072,213.2,0,0,1024,1024,1346,1024,213,0,95,3.885,3.909,3.827,3.844,0,0,6,GPS_Atti,
41.2907007803236,-72.9622674619011,181.48346610931,84.973756,0.4921268,8.361548824,18500,2016-09-26 18:13:04,11,15.439,181.48346610931,84.973756,2.5053728,8.361548824,212.9,0,0,1024,1024,1340,1024,213,0,95,3.885,3.909,3.827,3.844,0,0,6,GPS_Atti,
41.2907011269858,-72.9622676660441,181.81155010931,85.30184,0.4921268,8.3620081416,18600,2016-09-26 18:13:05,11,15.439,181.81155010931,85.30184,2.5053728,8.3620081416,212.9,0,0,1024,1024,1316,1024,213,0,95,3.885,3.909,3.827,3.844,0,0,6,GPS_Atti,
41.290701457154,-72.9622678445032,182.46771810931,85.958008,0.3131716,8.3605317636,18700,2016-09-26 18:13:05,11,15.439,182.46771810931,85.958008,2.5053728,8.3620081416,213.2,0,0,1024,1024,1365,1024,213,0,95,3.885,3.909,3.827,3.844,0,0,6,GPS_Atti,
41.2907014746772,-72.9622679533391,182.79580210931,86.286092,0.3131716,8.3857286148,18800,2016-09-26 18:13:05,11,15.439,182.79580210931,86.286092,2.5053728,8.3857286148,212.6,0,0,1024,1024,1389,1024,213,0,95,3.885,3.909,3.827,3.844,0,0,6,GPS_Atti,
41.2907015694021,-72.9622681037631,183.45197010931,86.94226,0.223694,8.4109910828,18900,2016-09-26 18:13:05,11,15.439,183.45197010931,86.94226,2.5053728,8.4109910828,212.2,0,0,1024,1024,1379,1024,213,0,95,3.885,3.909,3.827,3.844,0,0,6,GPS_Atti,
41.2907016824315,-72.9622685633816,183.78005410931,87.270344,0.223694,8.51295959,19000,2016-09-26 18:13:05,11,15.439,183.78005410931,87.270344,2.5053728,8.51295959,212.2,0,0,1024,1024,1357,1024,213,0,95,3.885,3.909,3.827,3.844,0,0,6,GPS_Atti,
41.290701708976,-72.9622687177329,184.43622210931,87.926512,0.223694,8.5489175964,19100,2016-09-26 18:13:05,11,15.439,184.43622210931,87.926512,2.5053728,8.5489175964,212.8,0,0,1024,1024,1339,1024,213,0,95,3.885,3.909,3.827,3.844,0,0,6,GPS_Atti,
41.29070163895,-72.9622689102908,184.76430610931,88.254596,0.223694,8.6073493568,19200,2016-09-26 18:13:05,11,15.439,184.76430610931,88.254596,2.5053728,8.6073493568,212.9,0,0,1024,1024,1315,1024,213,0,95,3.885,3.909,3.827,3.844,0,0,6,GPS_Atti,
41.2907016243,-72.9622690492027,185.42047410931,88.910764,0.223694,8.6448165496,19300,2016-09-26 18:13:05,11,15.439,185.42047410931,88.910764,2.5053728,8.6448165496,212.5,0,0,1024,1024,1197,1024,213,0,95,3.885,3.909,3.827,3.844,0,0,6,GPS_Atti,
41.2907016009762,-72.9622694591217,185.74855810931,89.238848,0.223694,8.7527561856,19400,2016-09-26 18:13:05,11,15.263,185.74855810931,89.238848,2.5053728,8.7527561856,212.7,0,0,1024,1024,1024,1024,213,0,95,3.839,3.82,3.83,3.889,0,0,6,GPS_Atti,
41.2907013215822,-72.9622698216883,186.73281010931,90.2231,0.223694,8.8821853236,19600,2016-09-26 18:13:06,11,15.263,186.73281010931,90.2231,2.5053728,8.8821853236,212.4,0,0,1024,1024,1024,1024,213,0,95,3.839,3.82,3.83,3.889,0,0,6,GPS_Atti,
41.290701192341,-72.9622700757355,187.06089410931,90.551184,0.223694,8.9642063236,19700,2016-09-26 18:13:06,11,15.263,187.06089410931,90.551184,2.5053728,8.9642063236,211.9,0,0,1024,1024,1024,1024,213,0,95,3.839,3.82,3.83,3.889,0,0,6,GPS_Atti,
41.2907008454432,-72.9622702553293,187.38897810931,90.879268,0.223694,9.0567916284,19900,2016-09-26 18:13:06,11,15.263,187.38897810931,90.879268,2.5053728,9.0567916284,211.9,0,0,1024,1024,1024,1024,213,0,95,3.839,3.82,3.83,3.889,0,0,6,GPS_Atti,
41.2907004961719,-72.9622705112394,187.38897810931,90.879268,0.223694,9.1700790336,20000,2016-09-26 18:13:06,11,15.263,187.38897810931,90.879268,2.5053728,9.1700790336,211.9,0,0,1024,1024,1024,1024,212.9,0,95,3.839,3.82,3.83,3.889,0,0,6,GPS_Atti,
41.2907003684121,-72.9622705336154,187.38897810931,90.879268,0.223694,9.19373389,20100,2016-09-26 18:13:06,11,15.263,187.38897810931,90.879268,2.5053728,9.19373389,211.9,0,0,1024,1024,1024,1024,212.9,0,95,3.839,3.82,3.83,3.889,0,0,6,GPS_Atti,
41.2906998449749,-72.9622703481021,187.38897810931,90.879268,0.223694,9.2231630248,20300,2016-09-26 18:13:06,11,15.263,187.38897810931,90.879268,2.5053728,9.2231630248,211.8,0,0,1024,1024,1024,1024,212.9,0,95,3.839,3.82,3.83,3.889,0,0,6,GPS_Atti,
41.2906997270696,-72.9622703232495,187.38897810931,90.879268,0.223694,9.234580348,20400,2016-09-26 18:13:06,11,15.263,187.38897810931,90.879268,2.5053728,9.234580348,211.9,0,0,1024,1024,1024,1024,212.9,0,95,3.839,3.82,3.83,3.889,0,0,6,GPS_Atti,
41.2906996218971,-72.9622702411853,187.38897810931,90.879268,0,9.229987172,20500,2016-09-26 18:13:06,11,15.263,187.38897810931,90.879268,2.5053728,9.234580348,211.8,0,0,1024,1024,1024,1024,212.9,0,95,3.839,3.82,3.83,3.889,0,0,6,GPS_Atti,
41.2906993967134,-72.9622700716038,187.38897810931,90.879268,0.223694,9.2224084316,20600,2016-09-26 18:13:07,11,15.263,187.38897810931,90.879268,2.5053728,9.234580348,211.2,0,0,1024,1024,1024,1024,212.9,0,95,3.839,3.82,3.83,3.889,0,0,6,GPS_Atti,
41.2906993018394,-72.9622699786107,187.38897810931,90.879268,0,9.2141735232,20700,2016-09-26 18:13:07,11,15.578,187.38897810931,90.879268,2.5053728,9.234580348,211.5,0,0,1024,1024,1024,1024,212.9,0,95,3.901,3.879,3.869,3.893,0,0,6,GPS_Atti,
41.2906993281289,-72.9622699340613,187.38897810931,90.879268,0,9.1990488508,20800,2016-09-26 18:13:07,11,15.578,187.38897810931,90.879268,2.5053728,9.234580348,211.6,0,0,1024,1024,1024,1024,212.9,0,95,3.901,3.879,3.869,3.893,0,0,6,GPS_Atti,
41.2906990316789,-72.9622696960204,187.38897810931,90.879268,0,9.1874346772,20900,2016-09-26 18:13:07,11,15.578,187.38897810931,90.879268,2.5053728,9.234580348,211.6,0,0,1024,1024,1024,1024,212.9,0,95,3.901,3.879,3.869,3.893,0,0,6,GPS_Atti,
41.2906992344757,-72.962269618329,187.38897810931,90.879268,0,9.1357942556,21000,2016-09-26 18:13:07,11,15.578,187.38897810931,90.879268,2.5053728,9.234580348,211.3,0,0,1024,1024,1024,1024,212.8,0,95,3.901,3.879,3.869,3.893,0,0,6,GPS_Atti,
41.2906992482414,-72.962269561996,187.38897810931,90.879268,0,9.1197181396,21100,2016-09-26 18:13:07,11,15.578,187.38897810931,90.879268,2.5053728,9.234580348,212.4,0,0,1024,1024,1024,1024,212.8,0,95,3.901,3.879,3.869,3.893,0,0,6,GPS_Atti,
41.2906994437931,-72.9622694240161,187.38897810931,90.879268,0,9.0546590824,21200,2016-09-26 18:13:07,11,15.578,187.38897810931,90.879268,2.5053728,9.234580348,212.8,0,0,1024,1024,1024,1024,212.8,0,95,3.901,3.879,3.869,3.893,0,0,6,GPS_Atti,
41.2906994906856,-72.9622694263688,187.38897810931,90.879268,0,9.0478677436,21300,2016-09-26 18:13:07,11,15.578,187.38897810931,90.879268,2.5053728,9.234580348,212.7,0,0,1024,1024,1024,1024,212.8,0,95,3.901,3.879,3.869,3.893,0,0,6,GPS_Atti,
41.2906997392143,-72.9622692536661,187.38897810931,90.879268,0,8.9663388696,21400,2016-09-26 18:13:07,11,15.578,187.38897810931,90.879268,2.5053728,9.234580348,212.2,0,0,1024,1024,1024,1024,212.8,0,95,3.901,3.879,3.869,3.893,0,0,6,GPS_Atti,
41.290699709637,-72.9622691191475,187.38897810931,90.879268,0,8.9375659028,21500,2016-09-26 18:13:08,11,15.578,187.38897810931,90.879268,2.5053728,9.234580348,211.5,0,0,1024,1024,1024,1024,212.8,0,95,3.901,3.879,3.869,3.893,0,0,6,GPS_Atti,
41.2907001841815,-72.9622688727128,187.38897810931,90.879268,0,8.8035435888,21700,2016-09-26 18:13:08,11,15.578,187.38897810931,90.879268,2.5053728,9.234580348,211.6,0,0,1024,1024,1024,1024,212.8,0,95,3.901,3.879,3.869,3.893,0,0,6,GPS_Atti,
41.2907001841815,-72.9622688727128,187.38897810931,90.879268,0,8.8035435888,21700,2016-09-26 18:13:08,11,15.742,187.38897810931,90.879268,2.5053728,9.234580348,211.6,0,0,1024,1024,1024,1024,212.8,0,95,3.914,3.928,3.92,3.969,0,0,6,GPS_Atti,
41.2907005439861,-72.9622687179595,187.38897810931,90.879268,0,8.7112535596,21900,2016-09-26 18:13:08,11,15.742,187.38897810931,90.879268,2.5053728,9.234580348,212.6,0,0,1024,1024,1024,1024,212.8,0,95,3.914,3.928,3.92,3.969,0,0,6,GPS_Atti,
41.2907008563244,-72.9622688284051,187.38897810931,90.879268,0,8.6938651076,22000,2016-09-26 18:13:08,11,15.742,187.38897810931,90.879268,2.5053728,9.234580348,212.1,0,0,1024,1024,1024,1024,212.8,0,95,3.914,3.928,3.92,3.969,0,0,6,GPS_Atti,
41.2907010496946,-72.9622687928428,187.38897810931,90.879268,0,8.6575462088,22100,2016-09-26 18:13:08,11,15.742,187.38897810931,90.879268,2.5053728,9.234580348,211.9,0,0,1024,1024,1024,1024,212.7,0,95,3.914,3.928,3.92,3.969,0,0,6,GPS_Atti,
41.2907012303603,-72.962268978449,187.38897810931,90.879268,0,8.679626262,22200,2016-09-26 18:13:08,11,15.742,187.38897810931,90.879268,2.5053728,9.234580348,212.1,1,0,1024,1024,1024,1024,212.7,0,95,3.914,3.928,3.92,3.969,0,0,6,GPS_Atti,
41.290701304548,-72.9622689735915,187.38897810931,90.879268,0,8.6682745556,22300,2016-09-26 18:13:08,11,15.742,187.38897810931,90.879268,2.5053728,9.234580348,212.2,0,0,1024,1024,1024,1024,212.7,0,95,3.914,3.928,3.92,3.969,0,0,6,GPS_Atti,
41.2907015352972,-72.9622690987407,187.38897810931,90.879268,0,8.6691931908,22400,2016-09-26 18:13:08,11,15.742,187.38897810931,90.879268,2.5053728,9.234580348,212.4,0,0,1024,1024,1024,1024,212.7,0,95,3.914,3.928,3.92,3.969,0,0,6,GPS_Atti,
41.290701746705,-72.96226920052,187.38897810931,90.879268,0,8.6676183876,22500,2016-09-26 18:13:08,11,15.742,187.38897810931,90.879268,2.5053728,9.234580348,212.2,0,0,1024,1024,1024,1024,212.7,0,95,3.914,3.928,3.92,3.969,0,0,6,GPS_Atti,
41.2907019493746,-72.9622693960704,187.38897810931,90.879268,0,8.6919950288,22600,2016-09-26 18:13:09,11,15.742,187.38897810931,90.879268,2.5053728,9.234580348,212.9,0,0,1024,1024,1024,1024,212.7,0,95,3.914,3.928,3.92,3.969,0,0,6,GPS_Atti,
41.2907019500702,-72.9622693914728,187.38897810931,90.879268,0,8.6907483096,22700,2016-09-26 18:13:09,11,15.742,187.38897810931,90.879268,2.5053728,9.234580348,213.4,0,0,1024,1024,1024,1024,212.7,0,95,3.914,3.928,3.92,3.969,0,0,6,GPS_Atti,
41.2907021359523,-72.9622696914024,187.06089410931,90.551184,0,8.7450462116,22800,2016-09-26 18:13:09,11,15.463,187.38897810931,90.879268,2.5053728,9.234580348,213.4,0,0,1024,1024,1024,1024,212.8,0,95,3.91,3.898,3.877,3.892,0,0,6,GPS_Atti,
41.2907020302651,-72.9622696699382,187.06089410931,90.551184,0,8.7524937184,22900,2016-09-26 18:13:09,11,15.463,187.38897810931,90.879268,2.5053728,9.234580348,213,0,0,1024,1024,1024,1024,212.7,0,95,3.91,3.898,3.877,3.892,0,0,6,GPS_Atti,
41.2907020038258,-72.9622698544091,187.06089410931,90.551184,0,8.8033467384,23000,2016-09-26 18:13:09,11,15.463,187.38897810931,90.879268,2.5053728,9.234580348,212.7,0,0,1024,1024,1024,1024,212.7,0,95,3.91,3.898,3.877,3.892,0,0,6,GPS_Atti,
41.2907019532262,-72.962269928904,186.73281010931,90.2231,0.223694,8.8288060568,23100,2016-09-26 18:13:09,11,15.463,187.38897810931,90.879268,2.5053728,9.234580348,212.7,0,0,1024,1024,1024,1024,212.7,0,95,3.91,3.898,3.877,3.892,0,0,6,GPS_Atti,
41.290701940813,-72.9622702009624,186.73281010931,90.2231,0.223694,8.9005252192,23200,2016-09-26 18:13:09,11,15.463,187.38897810931,90.879268,2.5053728,9.234580348,212.8,0,0,1024,1024,1024,1024,212.7,0,95,3.91,3.898,3.877,3.892,0,0,6,GPS_Atti,
41.2907018337,-72.9622701716953,186.73281010931,90.2231,0.223694,8.9062338808,23300,2016-09-26 18:13:09,11,15.463,187.38897810931,90.879268,2.5053728,9.234580348,212.6,0,0,1024,1024,1024,1024,212.7,0,95,3.91,3.898,3.877,3.892,0,0,6,GPS_Atti,
41.2907016470622,-72.9622705272977,186.73281010931,90.2231,0.223694,9.0211288976,23400,2016-09-26 18:13:09,11,15.463,187.38897810931,90.879268,2.5053728,9.234580348,212.9,0,0,1024,1024,1024,1024,212.8,0,95,3.91,3.898,3.877,3.892,0,0,6,GPS_Atti,
41.2907015210264,-72.9622705104864,186.73281010931,90.2231,0.223694,9.0327430712,23500,2016-09-26 18:13:10,11,15.463,187.38897810931,90.879268,2.5053728,9.234580348,213,0,0,1024,1024,1024,1024,212.8,0,95,3.91,3.898,3.877,3.892,0,0,6,GPS_Atti,
41.2907014550819,-72.9622705895973,186.73281010931,90.2231,0.223694,9.0614832296,23600,2016-09-26 18:13:10,11,15.463,187.38897810931,90.879268,2.5053728,9.234580348,212.3,0,0,1024,1028,1024,1024,212.8,0,95,3.91,3.898,3.877,3.892,0,0,6,GPS_Atti,
41.2907014068155,-72.9622707567205,186.40472610931,89.895016,0,9.110564596,23700,2016-09-26 18:13:10,11,15.463,187.38897810931,90.879268,2.5053728,9.234580348,212.6,0,0,1024,1125,1024,1024,212.8,0,95,3.91,3.898,3.877,3.892,0,0,6,GPS_Atti,
41.2907013456299,-72.9622708407328,186.40472610931,89.895016,0,9.1399609224,23900,2016-09-26 18:13:10,11,15.598,187.38897810931,90.879268,2.5053728,9.234580348,212.4,0,0,1024,1099,1024,1024,212.7,0,95,3.872,3.906,3.877,3.887,0,0,6,GPS_Atti,
41.2907012303339,-72.9622709763542,186.40472610931,89.895016,0,9.1896000316,24000,2016-09-26 18:13:10,11,15.598,187.38897810931,90.879268,2.5053728,9.234580348,212,0,0,1024,1024,1024,1024,212.8,0,95,3.872,3.906,3.877,3.887,0,0,6,GPS_Atti,
41.2907012336448,-72.962271059389,186.40472610931,89.895016,0,9.210466174,24100,2016-09-26 18:13:10,11,15.598,187.38897810931,90.879268,2.5053728,9.234580348,211.8,0,0,1024,1024,1024,1024,212.8,0,95,3.872,3.906,3.877,3.887,0,0,6,GPS_Atti,
41.2907012890017,-72.9622712762647,186.40472610931,89.895016,0.223694,9.259022606,24200,2016-09-26 18:13:10,11,15.598,187.38897810931,90.879268,2.5053728,9.259022606,211.8,0,0,1024,1024,1024,1024,212.7,0,95,3.872,3.906,3.877,3.887,0,0,6,GPS_Atti,
41.290701189615,-72.9622714978371,186.40472610931,89.895016,0.223694,9.3286092224,24300,2016-09-26 18:13:10,11,15.598,187.38897810931,90.879268,2.5053728,9.3286092224,211.9,0,0,1024,1024,1024,1032,212.7,0,95,3.872,3.906,3.877,3.887,0,0,6,GPS_Atti,
41.2907014141625,-72.9622717339506,186.40472610931,89.895016,0.223694,9.3610239216,24400,2016-09-26 18:13:10,11,15.598,187.38897810931,90.879268,2.5053728,9.3610239216,211.8,0,0,1024,1024,1024,1169,212.7,0,95,3.872,3.906,3.877,3.887,0,0,6,GPS_Atti,
41.2907015010713,-72.9622718945799,186.40472610931,89.895016,0.4921268,9.391732584,24500,2016-09-26 18:13:10,11,15.598,187.38897810931,90.879268,2.5053728,9.391732584,212.9,0,0,1024,1024,1024,1211,213.1,0,95,3.872,3.906,3.877,3.887,0,0,6,GPS_Atti,
41.2907017935248,-72.9622719712755,186.40472610931,89.895016,0.3131716,9.3762470192,24600,2016-09-26 18:13:11,11,15.598,187.38897810931,90.879268,2.5053728,9.391732584,214.1,0,0,1024,1024,1024,1193,214.1,0,95,3.872,3.906,3.877,3.887,0,0,6,GPS_Atti,
41.2907019261092,-72.9622722088115,186.40472610931,89.895016,0.4921268,9.4223100128,24700,2016-09-26 18:13:11,11,15.598,187.38897810931,90.879268,2.5053728,9.4223100128,215.4,0,0,1024,1024,1024,1188,215.2,0,95,3.872,3.906,3.877,3.887,0,0,6,GPS_Atti,
41.2907022851821,-72.9622726154446,186.40472610931,89.895016,0.4921268,9.4875659204,24800,2016-09-26 18:13:11,11,15.598,187.38897810931,90.879268,2.5053728,9.4875659204,217.5,0,0,1024,1024,1024,1187,217.2,0,95,3.872,3.906,3.877,3.887,0,0,6,GPS_Atti,
41.2907025285905,-72.9622725775267,186.40472610931,89.895016,0.4921268,9.451115788,24900,2016-09-26 18:13:11,11,15.598,187.38897810931,90.879268,2.5053728,9.4875659204,219.8,0,0,1024,1024,1024,1185,218.4,0,95,3.872,3.906,3.877,3.887,0,0,6,GPS_Atti,
41.2907028554305,-72.9622729825998,186.40472610931,89.895016,0.4921268,9.5232614596,25000,2016-09-26 18:13:11,11,15.598,187.38897810931,90.879268,2.5053728,9.5232614596,221.4,0,0,1024,1024,1024,1193,219.6,0,95,3.872,3.906,3.877,3.887,0,0,6,GPS_Atti,
41.2907029646166,-72.9622732271049,186.40472610931,89.895016,0.4921268,9.5766407264,25100,2016-09-26 18:13:11,11,15.598,187.38897810931,90.879268,2.5053728,9.5766407264,223.2,0,0,1024,1024,1024,1215,221.2,0,95,3.872,3.906,3.877,3.887,0,0,6,GPS_Atti,
41.2907034662562,-72.962273736362,186.07664210931,89.566932,0.223694,9.6631236688,25300,2016-09-26 18:13:11,11,15.598,187.38897810931,90.879268,2.5053728,9.6631236688,228.1,0,0,1024,1024,1024,1197,223,0,95,3.872,3.906,3.877,3.887,0,0,6,GPS_Atti,
41.2907035734287,-72.9622740454787,186.07664210931,89.566932,0.223694,9.735400574,25400,2016-09-26 18:13:11,11,15.598,187.38897810931,90.879268,2.5053728,9.735400574,230.6,0,0,1024,1024,1024,1190,227.2,0,95,3.872,3.906,3.877,3.887,0,0,6,GPS_Atti,
41.2907035987216,-72.9622742464605,186.07664210931,89.566932,0.223694,9.7865488696,25500,2016-09-26 18:13:12,11,15.598,187.38897810931,90.879268,2.5053728,9.7865488696,233.1,0,0,1024,1024,1024,1137,229.4,0,95,3.872,3.906,3.877,3.887,0,0,6,GPS_Atti,
41.2907037671633,-72.9622747579287,186.07664210931,89.566932,0.223694,9.9079399496,25600,2016-09-26 18:13:12,11,15.598,187.38897810931,90.879268,2.5053728,9.9079399496,235.1,0,0,1024,1024,1024,1024,230.9,0,95,3.872,3.906,3.877,3.887,0,0,6,GPS_Atti,
41.2907037222813,-72.9622749589053,186.07664210931,89.566932,0.223694,9.9653218412,25700,2016-09-26 18:13:12,11,15.598,187.38897810931,90.879268,2.5053728,9.9653218412,236.3,0,0,1024,1024,1024,1024,230.9,0,95,3.872,3.906,3.877,3.887,0,0,6,GPS_Atti,
41.2907035699279,-72.9622757745128,186.40472610931,89.895016,0.3131716,10.1957352344,25900,2016-09-26 18:13:12,11,15.598,187.38897810931,90.879268,2.5053728,10.1957352344,236.8,0,0,1024,1024,1024,1024,233.1,0,95,3.872,3.906,3.877,3.887,0,0,6,GPS_Atti,
41.2907033662402,-72.9622762855781,186.40472610931,89.895016,0.3131716,10.3494753968,26000,2016-09-26 18:13:12,11,15.598,187.38897810931,90.879268,2.5053728,10.3494753968,237.1,0,0,1024,1024,1024,1024,233.7,0,95,3.872,3.906,3.877,3.887,0,0,6,GPS_Atti,
41.2907032219107,-72.9622764847398,186.40472610931,89.895016,0.3131716,10.4151578136,26100,2016-09-26 18:13:12,11,15.485,187.38897810931,90.879268,2.5053728,10.4151578136,237.5,0,0,1024,1024,1024,1024,234.2,0,95,3.9,3.899,3.863,3.856,0,0,6,GPS_Atti,
41.2907029436875,-72.9622773683617,186.40472610931,89.895016,0.3131716,10.674869108,26200,2016-09-26 18:13:12,11,15.485,187.38897810931,90.879268,2.5053728,10.674869108,238,0,0,1024,1024,1024,1024,234.6,0,95,3.9,3.899,3.863,3.856,0,0,6,GPS_Atti,
41.2907027893965,-72.9622775619452,186.40472610931,89.895016,0.3131716,10.7402562492,26300,2016-09-26 18:13:12,11,15.485,187.38897810931,90.879268,2.5053728,10.7402562492,238.7,0,0,1024,1024,1024,1024,235,0,95,3.9,3.899,3.863,3.856,0,0,6,GPS_Atti,
41.2907026808171,-72.9622781569107,186.07664210931,89.566932,0.3131716,10.9080712152,26400,2016-09-26 18:13:12,11,15.485,187.38897810931,90.879268,2.5053728,10.9080712152,239.6,0,0,1024,1024,1024,1024,235.4,0,95,3.9,3.899,3.863,3.856,0,0,6,GPS_Atti,
41.2907024470246,-72.9622787644061,186.07664210931,89.566932,0.3131716,11.0907483864,26500,2016-09-26 18:13:12,11,15.485,187.38897810931,90.879268,2.5053728,11.0907483864,240.5,0,0,1024,1024,1024,1024,236,0,95,3.9,3.899,3.863,3.856,0,0,6,GPS_Atti,
41.2907021860514,-72.9622790874712,186.07664210931,89.566932,0.223694,11.2007549516,26600,2016-09-26 18:13:13,11,15.485,187.38897810931,90.879268,2.5053728,11.2007549516,241.5,0,0,1024,1024,1024,1024,236.7,0,95,3.9,3.899,3.863,3.856,0,0,6,GPS_Atti,
41.2907020744937,-72.9622791530723,186.07664210931,89.566932,0.223694,11.2287733252,26700,2016-09-26 18:13:13,11,15.485,187.38897810931,90.879268,2.5053728,11.2287733252,242.2,0,0,1024,1024,1024,1024,237.4,0,95,3.9,3.899,3.863,3.856,0,0,6,GPS_Atti,
41.2907017124509,-72.962279973761,186.07664210931,89.566932,0.223694,11.4807418372,26800,2016-09-26 18:13:13,11,15.485,187.38897810931,90.879268,2.5053728,11.4807418372,241.9,0,0,1024,1024,1024,1024,238.1,0,95,3.9,3.899,3.863,3.856,0,0,6,GPS_Atti,
41.2907015902531,-72.9622799434237,186.07664210931,89.566932,0.223694,11.4847772704,26900,2016-09-26 18:13:13,11,15.485,187.38897810931,90.879268,2.5053728,11.4847772704,242.1,0,0,1024,1024,1024,1024,239.1,0,95,3.9,3.899,3.863,3.856,0,0,6,GPS_Atti,
41.2907013767391,-72.9622799629873,186.07664210931,89.566932,0.223694,11.5113848828,27000,2016-09-26 18:13:13,11,15.485,187.38897810931,90.879268,2.5053728,11.5113848828,242.5,0,0,1024,1024,1024,1024,239.4,0,95,3.9,3.899,3.863,3.856,0,0,6,GPS_Atti,
41.2907009509746,-72.9622802772495,186.07664210931,89.566932,0.3131716,11.6380253068,27100,2016-09-26 18:13:13,11,15.238,187.38897810931,90.879268,2.5053728,11.6380253068,243.1,0,0,1024,1024,1024,1024,239.9,0,95,3.881,3.803,3.783,3.878,0,0,6,GPS_Atti,
41.2907006548014,-72.962280252695,186.07664210931,89.566932,0.3131716,11.6632549664,27200,2016-09-26 18:13:13,11,15.238,187.38897810931,90.879268,2.5053728,11.6632549664,242.7,0,0,1024,1024,1024,1024,240.2,0,95,3.881,3.803,3.783,3.878,0,0,6,GPS_Atti,
41.2907005302136,-72.96228004745,186.07664210931,89.566932,0.3131716,11.62319591,27300,2016-09-26 18:13:13,11,15.238,187.38897810931,90.879268,2.5053728,11.6632549664,242.6,0,0,1024,1024,1024,1024,240.4,0,95,3.881,3.803,3.783,3.878,0,0,6,GPS_Atti,
41.2907000762769,-72.9622801833216,186.07664210931,89.566932,0.3131716,11.7096788524,27400,2016-09-26 18:13:13,11,15.238,187.38897810931,90.879268,2.5053728,11.7096788524,242.8,0,0,1024,1024,1024,1024,240.6,0,95,3.881,3.803,3.783,3.878,0,0,6,GPS_Atti,
41.290699973863,-72.9622799193597,186.07664210931,89.566932,0.447388,11.6528547036,27500,2016-09-26 18:13:14,11,15.238,187.38897810931,90.879268,2.5053728,11.7096788524,243.4,0,0,1024,1024,1024,1024,240.9,0,95,3.881,3.803,3.783,3.878,0,0,6,GPS_Atti,
41.2906998225154,-72.9622797907065,186.07664210931,89.566932,0.4921268,11.6372050968,27600,2016-09-26 18:13:14,11,15.238,187.38897810931,90.879268,2.5053728,11.7096788524,244.1,0,0,1024,1024,1024,1024,241.2,0,95,3.881,3.803,3.783,3.878,0,0,6,GPS_Atti,
