latitude,longitude,altitude(feet),ascent(feet),speed(mph),distance(feet),time(millisecond),datetime(utc),satellites,voltage(v),max_altitude(feet),max_ascent(feet),max_speed(mph),max_distance(feet),compass_heading(degrees),isPhoto,isVideo,rc_elevator,rc_aileron,rc_throttle,rc_rudder,gimbal_heading(degrees),gimbal_pitch(degrees),battery_percent,voltageCell1,voltageCell2,voltageCell3,voltageCell4,voltageCell5,voltageCell6,flycStateRaw,flycState,message
41.2960032685069,-72.9649847465957,149.07465667328,0,0,0,0,2016-09-26 18:55:59,11,0,149.07465667328,0,0,0,71.8,0,0,1024,1024,1024,1024,71.5,-1,50,3.853,3.858,3.853,3.857,0,0,6,GPS_Atti,
41.2960032543329,-72.9649847842451,149.07465667328,0,0,0.011543471498,100,2016-09-26 18:55:59,11,0,149.07465667328,0,0,0.011543471498,71.8,0,0,1024,1024,1024,1024,71.5,-1,50,3.853,3.858,3.853,3.857,0,0,6,GPS_Atti,
41.2960031553882,-72.9649848862798,149.07465667328,0,0,0.05629757398,200,2016-09-26 18:55:59,11,0,149.07465667328,0,0,0.05629757398,71.8,0,0,1024,1024,1024,1024,71.5,-1,50,3.853,3.858,3.853,3.857,0,0,6,GPS_Atti,
41.2960031566225,-72.964984887823,149.07465667328,0,0,0.056258531984,300,2016-09-26 18:55:59,11,0,149.07465667328,0,0,0.05629757398,71.8,0,0,1024,1024,1024,1024,71.5,-1,50,3.853,3.858,3.853,3.857,0,0,6,GPS_Atti,
41.2960030513759,-72.9649850879361,149.07465667328,0,0,0.122599085288,400,2016-09-26 18:55:59,11,0,149.07465667328,0,0,0.122599085288,71.8,0,0,1024,1024,1024,1024,71.4,-1,50,3.853,3.858,3.853,3.857,0,0,6,GPS_Atti,
41.2960030526478,-72.9649850871719,149.07465667328,0,0,0.122139439604,500,2016-09-26 18:55:59,11,0,149.07465667328,0,0,0.122599085288,71.8,0,0,1024,1024,1024,1024,71.5,-1,50,3.853,3.858,3.853,3.857,0,0,6,GPS_Atti,
41.2960029537815,-72.9649850864975,149.07465667328,0,0,0.147873036228,600,2016-09-26 18:55:59,11,0,149.07465667328,0,0,0.147873036228,71.8,0,0,1024,1024,1024,1024,71.5,-1,50,3.853,3.858,3.853,3.857,0,0,6,GPS_Atti,
41.2960029428764,-72.9649850731809,149.07465667328,0,0,0.148758534944,700,2016-09-26 18:55:59,11,0,149.07465667328,0,0,0.148758534944,71.9,0,0,1024,1024,1024,1024,71.4,-1,50,3.853,3.858,3.853,3.857,0,0,6,GPS_Atti,
41.296002843438,-72.9649851740349,149.07465667328,0,0,0.194370741128,800,2016-09-26 18:56:00,11,0,149.07465667328,0,0,0.194370741128,71.9,0,0,1024,1024,1024,1024,71.4,-1,50,3.853,3.858,3.853,3.857,0,0,6,GPS_Atti,Home Point Recorded
41.2960028440926,-72.9649851746998,149.07465667328,0,0,0.194290032464,900,2016-09-26 18:56:00,11,15.419,149.07465667328,0,0,0.194370741128,71.9,0,0,1024,1024,1024,1024,71.4,-1,50,3.853,3.858,3.853,3.857,0,0,6,GPS_Atti,
41.2960027310096,-72.964985380531,149.07465667328,0,0,0.262018709172,1000,2016-09-26 18:56:00,11,15.419,149.07465667328,0,0,0.262018709172,71.9,0,0,1024,1024,1024,1024,71.4,-1,50,3.853,3.858,3.853,3.857,0,0,6,GPS_Atti,
41.2960027318784,-72.9649853811008,149.07465667328,0,0,0.261885507068,1100,2016-09-26 18:56:00,11,15.419,149.07465667328,0,0,0.262018709172,71.9,0,0,1024,1024,1024,1024,71.4,-1,50,3.853,3.858,3.853,3.857,0,0,6,GPS_Atti,
41.2960026329788,-72.964985482588,149.07465667328,0,0,0.307353684376,1200,2016-09-26 18:56:00,11,15.419,149.07465667328,0,0,0.307353684376,71.8,0,0,1024,1024,1024,1024,71.4,-1,50,3.853,3.858,3.853,3.857,0,0,6,GPS_Atti,
41.2960026523691,-72.9649855215943,149.07465667328,0,0,0.30929626974,1300,2016-09-26 18:56:00,11,15.419,149.07465667328,0,0,0.30929626974,71.8,0,0,1024,1024,1024,1024,71.4,-1,50,3.853,3.858,3.853,3.857,0,0,6,GPS_Atti,
41.2960026556051,-72.9649856235152,148.74657267328,-0.328084,0,0.32830709712,1500,2016-09-26 18:56:00,11,15.419,149.07465667328,0,0,0.32830709712,71.9,0,0,1024,1024,1024,1024,71.5,-1,50,3.853,3.858,3.853,3.857,0,0,6,GPS_Atti,
41.2960025666784,-72.9649856916765,148.74657267328,-0.328084,0,0.36425198016,1700,2016-09-26 18:56:00,11,15.419,149.07465667328,0,0,0.36425198016,71.9,0,0,1024,1024,1024,1024,71.5,-1,50,3.853,3.858,3.853,3.857,0,0,6,GPS_Atti,
41.2960024662739,-72.9649857933694,148.41848867328,-0.656168,0,0.40988190288,1800,2016-09-26 18:56:00,11,15.419,149.07465667328,0,0,0.40988190288,71.9,0,0,1024,1024,1024,1024,71.4,-1,50,3.853,3.858,3.853,3.857,0,0,6,GPS_Atti,
41.2960024668781,-72.9649857946294,148.41848867328,-0.656168,0,0.40996720472,1900,2016-09-26 18:56:01,11,15.419,149.07465667328,0,0,0.40996720472,71.9,0,0,1024,1024,1024,1024,71.4,-1,50,3.853,3.858,3.853,3.857,0,0,6,GPS_Atti,
41.2960024524152,-72.9649858901777,148.09040467328,-0.984252,0,0.43234253352,2000,2016-09-26 18:56:01,11,15.419,149.07465667328,0,0,0.43234253352,71.9,0,0,1024,1024,1024,1024,71.5,-1,50,3.853,3.858,3.853,3.857,0,0,11,AutoTakeoff,Return-to-Home Altitude:98FT
41.2960024518164,-72.9649858911088,148.09040467328,-0.984252,0,0.43268046004,2100,2016-09-26 18:56:01,11,15.405,149.07465667328,0,0,0.43268046004,71.9,0,0,1024,1024,1024,1024,71.4,-1,50,3.848,3.854,3.848,3.853,0,0,11,AutoTakeoff,
41.2960024506955,-72.964985992611,148.09040467328,-0.984252,0,0.4535269174,2200,2016-09-26 18:56:01,11,15.405,149.07465667328,0,0,0.4535269174,71.8,0,0,1024,1024,1024,1024,71.4,-1,50,3.848,3.854,3.848,3.853,0,0,11,AutoTakeoff,
41.2960024513211,-72.9649860043276,148.09040467328,-0.984252,0,0.45580053952,2300,2016-09-26 18:56:01,11,15.405,149.07465667328,0,0,0.45580053952,71.8,0,0,1024,1024,1024,1024,71.4,-1,50,3.848,3.854,3.848,3.853,0,0,11,AutoTakeoff,
41.2960023530107,-72.9649861048402,147.76232067328,-1.312336,0,0.50018702388,2400,2016-09-26 18:56:01,11,15.405,149.07465667328,0,0,0.50018702388,71.8,0,0,1024,1024,1024,1024,71.4,-1,50,3.848,3.854,3.848,3.853,0,0,11,AutoTakeoff,
41.2960023535188,-72.9649861045744,147.76232067328,-1.312336,0,0.50000985852,2500,2016-09-26 18:56:01,11,15.405,149.07465667328,0,0,0.50018702388,71.8,0,0,1024,1024,1024,1024,71.4,-1,50,3.848,3.854,3.848,3.853,0,0,11,AutoTakeoff,
41.2960023539305,-72.9649861823327,147.76232067328,-1.312336,0,0.5159777068,2600,2016-09-26 18:56:01,11,15.405,149.07465667328,0,0,0.5159777068,71.7,0,0,1024,1024,1094,1024,71.4,-1,50,3.848,3.854,3.848,3.853,0,0,11,AutoTakeoff,
41.2960023497716,-72.9649861858801,147.76232067328,-1.312336,0,0.5177001478,2700,2016-09-26 18:56:01,11,15.405,149.07465667328,0,0,0.5177001478,71.6,0,0,1024,1024,1269,1024,71.4,-1,50,3.848,3.854,3.848,3.853,0,0,11,AutoTakeoff,
41.2960023480082,-72.9649863951713,147.43423667328,-1.64042,0,0.56303151408,2800,2016-09-26 18:56:02,11,15.405,149.07465667328,0,0,0.56303151408,71.4,0,0,1024,1024,1232,1024,71.4,-1,50,3.848,3.854,3.848,3.853,0,0,11,AutoTakeoff,
41.2960023665256,-72.9649864188032,147.10615267328,-1.968504,0,0.56427823328,2900,2016-09-26 18:56:02,11,15.405,149.07465667328,0,0,0.56427823328,71,0,0,1024,1024,1263,1024,71.4,-1,50,3.848,3.854,3.848,3.853,0,0,11,AutoTakeoff,
41.2960024476585,-72.9649865576132,146.77806867328,-2.296588,0.223694,0.57977035976,3000,2016-09-26 18:56:02,11,15.405,149.07465667328,0,0.223694,0.57977035976,70.1,0,0,1024,1024,1456,1024,71.4,-1,50,3.848,3.854,3.848,3.853,0,0,11,AutoTakeoff,
41.2960026044718,-72.9649866383793,146.44998467328,-2.624672,0.3131716,0.57236878472,3100,2016-09-26 18:56:02,11,15.315,149.07465667328,0,0.3131716,0.57977035976,69.3,0,0,1024,1024,1535,1024,71.4,-1,50,3.849,3.849,3.818,3.826,0,0,11,AutoTakeoff,
41.2960027768188,-72.9649869642664,146.12190067328,-2.952756,0.4921268,0.63381563708,3200,2016-09-26 18:56:02,11,15.315,149.07465667328,0,0.4921268,0.63381563708,68.7,0,0,1024,1024,1589,1024,71.3,-1,50,3.849,3.849,3.818,3.826,0,0,11,AutoTakeoff,
41.2960029162098,-72.9649871852264,146.12190067328,-2.952756,0.4921268,0.68071196404,3300,2016-09-26 18:56:02,11,15.315,149.07465667328,0,0.4921268,0.68071196404,68.6,0,0,1024,1024,1646,1024,71.2,-1,50,3.849,3.849,3.818,3.826,0,0,11,AutoTakeoff,
41.2960030330889,-72.964987615015,146.44998467328,-2.624672,0.4921268,0.79095474972,3400,2016-09-26 18:56:02,11,15.315,149.07465667328,0,0.4921268,0.79095474972,68.8,0,0,1024,1024,1684,1024,71.1,-1,50,3.849,3.849,3.818,3.826,0,0,11,AutoTakeoff,
41.2960032942431,-72.9649884397191,146.77806867328,-2.296588,0.447388,1.012385203,3600,2016-09-26 18:56:02,11,15.315,149.07465667328,0,0.4921268,1.012385203,69.9,0,0,1024,1024,1684,1024,71,-1,50,3.849,3.849,3.818,3.826,0,0,11,AutoTakeoff,
41.2960033013822,-72.9649887599719,147.10615267328,-1.968504,0.447388,1.10019360476,3700,2016-09-26 18:56:02,11,15.315,149.07465667328,0,0.4921268,1.10019360476,70.3,0,0,1024,1024,1684,1024,71,-1,50,3.849,3.849,3.818,3.826,0,0,11,AutoTakeoff,
41.2960033020969,-72.9649890478041,147.43423667328,-1.64042,0.447388,1.17909124508,3800,2016-09-26 18:56:02,11,15.315,149.07465667328,0,0.4921268,1.17909124508,70.4,0,0,1024,1024,1684,1024,71,-1,50,3.849,3.849,3.818,3.826,0,0,11,AutoTakeoff,
41.2960032689709,-72.9649893365368,147.76232067328,-1.312336,0.447388,1.25817261244,3900,2016-09-26 18:56:03,11,15.315,149.07465667328,0,0.4921268,1.25817261244,70.6,0,0,1024,1024,1684,1024,71,-1,50,3.849,3.849,3.818,3.826,0,0,11,AutoTakeoff,
41.2960031918846,-72.9649897594304,148.41848867328,-0.656168,0.447388,1.3743766844,4000,2016-09-26 18:56:03,11,15.315,149.07465667328,0,0.4921268,1.3743766844,70.7,0,0,1024,1024,1629,1024,71,-1,50,3.849,3.849,3.818,3.826,0,0,11,AutoTakeoff,
41.2960031981655,-72.9649900173512,148.74657267328,-0.328084,0.223694,1.44502301212,4100,2016-09-26 18:56:03,11,15.315,149.07465667328,0,0.4921268,1.44502301212,70.3,0,0,1024,1024,1632,1024,71,-1,50,3.849,3.849,3.818,3.826,0,0,11,AutoTakeoff,
41.2960031197778,-72.9649900858745,149.07465667328,0,0,1.4645833802,4200,2016-09-26 18:56:03,11,15.328,149.07465667328,0,0.4921268,1.4645833802,69.4,0,0,1024,1024,1654,1024,70.9,-1,50,3.829,3.821,3.811,3.811,0,0,11,AutoTakeoff,
41.296003085682,-72.9649901334471,150.05890867328,0.984252,0,1.47812340688,4300,2016-09-26 18:56:03,11,15.328,150.05890867328,0.984252,0.4921268,1.47812340688,68.9,0,0,1024,1024,1552,1024,70.9,-1,50,3.829,3.821,3.811,3.811,0,0,11,AutoTakeoff,
41.2960029229731,-72.9649901404042,150.71507667328,1.64042,0,1.48388784276,4400,2016-09-26 18:56:03,11,15.328,150.71507667328,1.64042,0.4921268,1.48388784276,69.2,0,0,1024,1024,1384,1024,70.8,-1,50,3.829,3.821,3.811,3.811,0,0,11,AutoTakeoff,
41.296002871767,-72.9649900455257,151.37124467328,2.296588,0.223694,1.4597113328,4500,2016-09-26 18:56:03,11,15.328,151.37124467328,2.296588,0.4921268,1.48388784276,68.8,0,0,1024,1024,1272,1024,70.8,-1,50,3.829,3.821,3.811,3.811,0,0,11,AutoTakeoff,
41.2960026824631,-72.9649897786652,151.69932867328,2.624672,0.223694,1.39583993968,4600,2016-09-26 18:56:03,11,15.328,151.69932867328,2.624672,0.4921268,1.48388784276,68.8,0,0,1024,1024,1351,1024,70.7,-1,50,3.829,3.821,3.811,3.811,0,0,11,AutoTakeoff,
41.2960026533348,-72.9649895546881,152.35549667328,3.28084,0.3131716,1.33694558084,4700,2016-09-26 18:56:03,11,15.328,152.35549667328,3.28084,0.4921268,1.48388784276,68.7,0,0,1051,1024,1361,1024,70.7,-1,50,3.829,3.821,3.811,3.811,0,0,11,AutoTakeoff,
41.2960025235842,-72.9649892923984,152.68358067328,3.608924,0.447388,1.27536749488,4800,2016-09-26 18:56:04,11,15.328,152.68358067328,3.608924,0.4921268,1.48388784276,68.9,0,0,1024,1024,1275,1024,70.6,-1,50,3.829,3.821,3.811,3.811,0,0,11,AutoTakeoff,
41.2960024836449,-72.9649890049437,153.33974867328,4.265092,0.447388,1.20188980224,4900,2016-09-26 18:56:04,11,15.328,153.33974867328,4.265092,0.4921268,1.48388784276,69.2,0,0,1024,1024,1308,1024,70.6,-1,50,3.829,3.821,3.811,3.811,0,0,11,AutoTakeoff,
41.2960024621299,-72.9649882908098,153.66783267328,4.593176,0.447388,1.015091896,5000,2016-09-26 18:56:04,11,15.328,153.66783267328,4.593176,0.4921268,1.48388784276,70,0,0,1024,1024,1262,1024,70.6,-1,50,3.829,3.821,3.811,3.811,0,0,11,AutoTakeoff,
41.2960025433422,-72.9649879840047,154.32400067328,5.249344,0.447388,0.92602365168,5100,2016-09-26 18:56:04,11,15.328,154.32400067328,5.249344,0.4921268,1.48388784276,70.3,0,0,1024,1024,1257,1024,70.6,-1,50,3.829,3.821,3.811,3.811,0,0,11,AutoTakeoff,
41.2960025223476,-72.9649871807747,154.98016867328,5.905512,0.447388,0.72064306768,5300,2016-09-26 18:56:04,11,15.328,154.98016867328,5.905512,0.4921268,1.48388784276,70.5,0,0,1024,1024,1244,1024,70.6,-1,50,3.829,3.821,3.811,3.811,0,0,11,AutoTakeoff,
41.2960026161688,-72.9649866931302,155.30825267328,6.233596,0.447388,0.58424870636,5400,2016-09-26 18:56:04,11,15.328,155.30825267328,6.233596,0.4921268,1.48388784276,70.2,0,0,1050,973,1286,1024,70.6,-1,50,3.829,3.821,3.811,3.811,0,0,11,AutoTakeoff,
41.2960026419441,-72.9649864657769,155.96442067328,6.889764,0.223694,0.52377298264,5500,2016-09-26 18:56:04,11,15.328,155.96442067328,6.889764,0.4921268,1.48388784276,69.9,0,0,1024,1024,1301,1024,70.6,-1,50,3.829,3.821,3.811,3.811,0,0,11,AutoTakeoff,
41.2960025746151,-72.9649863298593,156.29250467328,7.217848,0,0.50244096096,5600,2016-09-26 18:56:04,11,15.328,156.29250467328,7.217848,0.4921268,1.48388784276,69.5,0,0,1024,1024,1282,1024,70.5,-1,50,3.829,3.821,3.811,3.811,0,0,11,AutoTakeoff,
41.2960026060095,-72.9649862757509,156.62058867328,7.545932,0,0.48386156404,5700,2016-09-26 18:56:04,11,15.328,156.62058867328,7.545932,0.4921268,1.48388784276,69.8,0,0,1024,1024,1183,1024,70.5,-1,50,3.829,3.821,3.811,3.811,0,0,6,GPS_Atti,
41.2960026427492,-72.9649859912065,156.94867267328,7.874016,0,0.41051182416,5800,2016-09-26 18:56:04,11,15.328,156.94867267328,7.874016,0.4921268,1.48388784276,69.4,0,0,1024,1024,1153,1024,70.5,-1,50,3.829,3.821,3.811,3.811,0,0,6,GPS_Atti,
41.2960027284321,-72.9649858896847,157.27675667328,8.2021,0,0.3701443688,5900,2016-09-26 18:56:05,11,15.328,157.27675667328,8.2021,0.4921268,1.48388784276,69.6,0,0,1024,1024,1191,1024,70.5,-1,50,3.829,3.821,3.811,3.811,0,0,6,GPS_Atti,
41.2960027091687,-72.9649857041807,157.60484067328,8.530184,0.223694,0.33248688728,6000,2016-09-26 18:56:05,12,15.328,157.60484067328,8.530184,0.4921268,1.48388784276,69.7,0,0,1024,1024,1155,1024,70.5,-1,50,3.829,3.821,3.811,3.811,0,0,6,GPS_Atti,
41.2960027820014,-72.9649855337907,157.93292467328,8.858268,0.223694,0.279407489256,6100,2016-09-26 18:56:05,12,15.328,157.93292467328,8.858268,0.4921268,1.48388784276,70,0,0,1024,961,1107,1024,70.5,-1,50,3.829,3.821,3.811,3.811,0,0,6,GPS_Atti,
41.2960027795737,-72.9649852570065,157.93292467328,8.858268,0.223694,0.22670932484,6200,2016-09-26 18:56:05,12,15.328,157.93292467328,8.858268,0.4921268,1.48388784276,69.7,0,0,1024,979,1055,1024,70.5,-1,50,3.829,3.821,3.811,3.811,0,0,6,GPS_Atti,
41.2960027669802,-72.9649850093731,158.26100867328,9.186352,0.3131716,0.196648956424,6300,2016-09-26 18:56:05,12,14.682,158.26100867328,9.186352,0.4921268,1.48388784276,69.1,0,0,1024,1024,1024,1024,70.4,-1,50,3.693,3.685,3.672,3.69,0,0,6,GPS_Atti,
41.2960027869018,-72.9649848145486,158.58909267328,9.514436,0.3131716,0.1766978403,6400,2016-09-26 18:56:05,12,14.682,158.58909267328,9.514436,0.4921268,1.48388784276,69,0,0,1024,1024,1032,1024,70.4,-1,50,3.693,3.685,3.672,3.69,0,0,6,GPS_Atti,
41.296002905151,-72.9649846550607,158.58909267328,9.514436,0.3131716,0.134923888832,6500,2016-09-26 18:56:05,12,14.682,158.58909267328,9.514436,0.4921268,1.48388784276,69,0,0,1024,1024,1098,1024,70.4,-1,50,3.693,3.685,3.672,3.69,0,0,6,GPS_Atti,
41.29600296583,-72.9649843571912,158.91717667328,9.84252,0.3131716,0.153586619088,6600,2016-09-26 18:56:05,12,14.682,158.91717667328,9.84252,0.4921268,1.48388784276,69.2,0,0,1024,1024,1223,1024,70.3,-1,50,3.693,3.685,3.672,3.69,0,0,6,GPS_Atti,
41.2960030793038,-72.9649841695873,158.91717667328,9.84252,0.3131716,0.172574480588,6700,2016-09-26 18:56:05,12,14.682,158.91717667328,9.84252,0.4921268,1.48388784276,69.4,0,0,1024,1024,1311,1024,70.3,-1,50,3.693,3.685,3.672,3.69,0,0,6,GPS_Atti,
41.2960032273533,-72.9649838413609,159.24526067328,10.170604,0.3131716,0.24859252764,6800,2016-09-26 18:56:06,12,14.682,159.24526067328,10.170604,0.4921268,1.48388784276,69.4,0,0,1024,1024,1281,1024,70.3,-1,50,3.693,3.685,3.672,3.69,0,0,6,GPS_Atti,
41.2960035441225,-72.964983406873,159.57334467328,10.498688,0.3131716,0.3807578862,7000,2016-09-26 18:56:06,12,14.682,159.57334467328,10.498688,0.4921268,1.48388784276,69.5,0,0,1024,1024,1317,1024,70.3,-1,50,3.693,3.685,3.672,3.69,0,0,6,GPS_Atti,
41.2960036649233,-72.9649832226762,159.90142867328,10.826772,0.3131716,0.4420603816,7100,2016-09-26 18:56:06,12,14.682,159.90142867328,10.826772,0.4921268,1.48388784276,69.3,0,0,1024,1024,1484,1024,70.3,-1,50,3.693,3.685,3.672,3.69,0,0,6,GPS_Atti,
41.296003750708,-72.9649829686601,160.22951267328,11.154856,0.3131716,0.51813978036,7200,2016-09-26 18:56:06,12,14.682,160.22951267328,11.154856,0.4921268,1.48388784276,69.3,0,0,1024,1024,1510,1024,70.3,-1,50,3.693,3.685,3.672,3.69,0,0,6,GPS_Atti,
41.2960038204231,-72.9649828467074,160.88568067328,11.811024,0,0.55836287876,7300,2016-09-26 18:56:06,12,14.682,160.88568067328,11.811024,0.4921268,1.48388784276,69.1,0,0,1024,1024,1467,1024,70.3,-1,50,3.693,3.685,3.672,3.69,0,0,6,GPS_Atti,
41.2960039950632,-72.9649827012544,161.86993267328,12.795276,0,0.62016734268,7400,2016-09-26 18:56:06,12,14.816,161.86993267328,12.795276,0.4921268,1.48388784276,68.9,0,0,1024,1024,1426,1024,70.2,-1,50,3.751,3.71,3.649,3.63,0,0,6,GPS_Atti,
41.296004101967,-72.9649826534237,162.85418467328,13.779528,0,0.64937009952,7500,2016-09-26 18:56:06,12,14.816,162.85418467328,13.779528,0.4921268,1.48388784276,68.6,0,0,1024,1024,1411,1024,70.2,-1,50,3.751,3.71,3.649,3.63,0,0,6,GPS_Atti,
41.296003831639,-72.9649821908274,163.51035267328,14.435696,0,0.73008204436,7600,2016-09-26 18:56:06,12,14.816,163.51035267328,14.435696,0.4921268,1.48388784276,69,0,0,1024,1024,1359,1024,70.1,-1,50,3.751,3.71,3.649,3.63,0,0,6,GPS_Atti,
41.2960038372925,-72.9649821191955,164.16652067328,15.091864,0,0.74951117884,7700,2016-09-26 18:56:06,12,14.816,164.16652067328,15.091864,0.4921268,1.48388784276,68.2,0,0,1024,1024,1311,1024,70.1,-1,50,3.751,3.71,3.649,3.63,0,0,6,GPS_Atti,
41.2960034347807,-72.9649818993629,164.82268867328,15.748032,0,0.7828248282,7800,2016-09-26 18:56:07,12,14.816,164.82268867328,15.748032,0.4921268,1.48388784276,68.3,0,0,1024,1024,1308,1024,70,-1,50,3.751,3.71,3.649,3.63,0,0,6,GPS_Atti,
41.2960034536115,-72.9649816878459,165.15077267328,16.076116,0,0.84116472508,7900,2016-09-26 18:56:07,12,14.816,165.15077267328,16.076116,0.4921268,1.48388784276,68.4,0,0,1024,1024,1306,1024,70,-1,50,3.751,3.71,3.649,3.63,0,0,6,GPS_Atti,
41.2960036548368,-72.9649811311595,165.80694067328,16.732284,0.223694,1.00102037324,8000,2016-09-26 18:56:07,12,14.816,165.80694067328,16.732284,0.4921268,1.48388784276,68.6,0,0,1024,1024,1236,1024,70,-1,50,3.751,3.71,3.649,3.63,0,0,6,GPS_Atti,
41.2960036626211,-72.9649810139458,166.46310867328,17.388452,0,1.03323166036,8100,2016-09-26 18:56:07,12,14.816,166.46310867328,17.388452,0.4921268,1.48388784276,69.2,0,0,1024,1024,1112,1024,70,-1,50,3.751,3.71,3.649,3.63,0,0,6,GPS_Atti,
41.2960035403474,-72.9649804986174,166.79119267328,17.716536,0,1.1686516122,8200,2016-09-26 18:56:07,12,14.816,166.79119267328,17.716536,0.4921268,1.48388784276,69.7,0,0,1024,1024,1039,1024,70,-1,50,3.751,3.71,3.649,3.63,0,0,6,GPS_Atti,
41.29600350865,-72.9649804002869,167.11927667328,18.04462,0,1.19460633744,8300,2016-09-26 18:56:07,12,14.816,167.11927667328,18.04462,0.4921268,1.48388784276,70,0,0,1024,1024,1024,1024,70,-1,50,3.751,3.71,3.649,3.63,0,0,6,GPS_Atti,
41.2960029814954,-72.9649806307379,167.44736067328,18.372704,0.223694,1.13306762156,8400,2016-09-26 18:56:07,12,14.754,167.44736067328,18.372704,0.4921268,1.48388784276,70,0,0,1024,960,1024,1024,70,-1,50,3.7,3.692,3.668,3.692,0,0,6,GPS_Atti,
41.2960022876324,-72.9649803447453,167.77544467328,18.700788,0.223694,1.25856631324,8600,2016-09-26 18:56:07,12,14.754,167.77544467328,18.700788,0.4921268,1.48388784276,69.8,0,0,1024,879,1024,1024,70,-1,50,3.7,3.692,3.668,3.692,0,0,6,GPS_Atti,
41.2960022227612,-72.9649803720365,168.10352867328,19.028872,0,1.25836946284,8700,2016-09-26 18:56:07,12,14.754,168.10352867328,19.028872,0.4921268,1.48388784276,69.5,0,0,1024,869,1024,1024,69.9,-1,50,3.7,3.692,3.668,3.692,0,0,6,GPS_Atti,
41.2960017293716,-72.9649805544693,168.10352867328,19.028872,0,1.27899610392,8800,2016-09-26 18:56:07,12,14.754,168.10352867328,19.028872,0.4921268,1.48388784276,69.3,0,0,1024,916,1024,1024,69.9,-1,50,3.7,3.692,3.668,3.692,0,0,6,GPS_Atti,
41.2960017584224,-72.9649806730366,168.43161267328,19.356956,0.223694,1.24515095848,8900,2016-09-26 18:56:08,12,14.754,168.43161267328,19.356956,0.4921268,1.48388784276,69.3,0,0,1024,955,1024,1024,69.9,-1,50,3.7,3.692,3.668,3.692,0,0,6,GPS_Atti,
41.296001655309,-72.9649808722748,168.43161267328,19.356956,0.223694,1.21420279476,9000,2016-09-26 18:56:08,12,14.754,168.43161267328,19.356956,0.4921268,1.48388784276,69,0,0,1024,791,1024,1024,69.9,-1,50,3.7,3.692,3.668,3.692,0,0,6,GPS_Atti,
41.2960015300084,-72.9649812402478,168.43161267328,19.356956,0.4921268,1.15157155916,9100,2016-09-26 18:56:08,12,14.754,168.43161267328,19.356956,0.4921268,1.48388784276,69.4,0,0,1024,694,1024,1024,69.9,-1,50,3.7,3.692,3.668,3.692,0,0,6,GPS_Atti,
41.2960017788736,-72.9649814021886,168.43161267328,19.356956,0.4921268,1.0657480656,9200,2016-09-26 18:56:08,12,14.754,168.43161267328,19.356956,0.4921268,1.48388784276,70,0,0,1024,705,1024,1024,69.9,-1,50,3.7,3.692,3.668,3.692,0,0,6,GPS_Atti,
41.2960021101206,-72.9649816337716,168.75969667328,19.68504,0.9171454,0.95220475488,9300,2016-09-26 18:56:08,12,14.754,168.75969667328,19.68504,0.9171454,1.48388784276,71,0,0,1024,622,1024,1024,70,-1,50,3.7,3.692,3.668,3.692,0,0,6,GPS_Atti,
41.2960024190009,-72.9649822182376,168.75969667328,19.68504,1.4092722,0.75920934188,9400,2016-09-26 18:56:08,12,14.754,168.75969667328,19.68504,1.4092722,1.48388784276,71.7,0,0,1024,756,1024,1024,70,-1,50,3.7,3.692,3.668,3.692,0,0,6,GPS_Atti,
41.2960031589782,-72.9649825513519,168.75969667328,19.68504,2.0579848,0.60307416628,9500,2016-09-26 18:56:08,12,14.454,168.75969667328,19.68504,2.0579848,1.48388784276,72.4,0,0,1024,868,1024,1024,70.1,-1,50,3.641,3.659,3.64,3.658,0,0,6,GPS_Atti,
41.2960042328048,-72.9649829847235,168.75969667328,19.68504,2.3264176,0.59751642332,9600,2016-09-26 18:56:08,12,14.454,168.75969667328,19.68504,2.3264176,1.48388784276,72.6,0,0,1024,1024,1024,1024,70.3,-1,50,3.641,3.659,3.64,3.658,0,0,6,GPS_Atti,
41.2960050228263,-72.9649836070694,168.75969667328,19.68504,2.5053728,0.71221458972,9700,2016-09-26 18:56:08,12,14.454,168.75969667328,19.68504,2.5053728,1.48388784276,72,0,0,1024,1024,1024,1024,70.4,-1,50,3.641,3.659,3.64,3.658,0,0,6,GPS_Atti,
41.2960064519644,-72.9649841139616,169.08778067328,20.013124,2.5053728,1.17435699296,9800,2016-09-26 18:56:09,12,14.454,169.08778067328,20.013124,2.5053728,1.48388784276,71.9,0,0,1024,1024,1024,1024,70.4,-1,50,3.641,3.659,3.64,3.658,0,0,6,GPS_Atti,
41.2960074846047,-72.9649843502991,169.08778067328,20.013124,2.460634,1.54207025932,9900,2016-09-26 18:56:09,12,14.454,169.08778067328,20.013124,2.5053728,1.54207025932,71.5,0,0,1024,1024,1027,1024,70.4,-1,50,3.641,3.659,3.64,3.658,0,0,6,GPS_Atti,
41.2960087725243,-72.9649851860412,169.08778067328,20.013124,2.23694,2.01174875204,10000,2016-09-26 18:56:09,12,14.454,169.08778067328,20.013124,2.5053728,2.01174875204,71,0,0,1024,1024,1042,1024,70.5,-1,50,3.641,3.659,3.64,3.658,0,0,6,GPS_Atti,
41.2960109421323,-72.9649856296789,169.41586467328,20.341208,1.789552,2.81016413192,10200,2016-09-26 18:56:09,12,14.454,169.41586467328,20.341208,2.5053728,2.81016413192,70.3,0,0,1024,1024,1024,1024,70.5,-1,50,3.641,3.659,3.64,3.658,0,0,6,GPS_Atti,
41.2960117267969,-72.9649860661744,169.41586467328,20.341208,1.565858,3.10712936452,10300,2016-09-26 18:56:09,12,14.454,169.41586467328,20.341208,2.5053728,3.10712936452,70.3,0,0,1024,1024,1024,972,70.5,-1,50,3.641,3.659,3.64,3.658,0,0,6,GPS_Atti,
41.2960128870697,-72.964986028206,169.41586467328,20.341208,1.565858,3.5268701916,10400,2016-09-26 18:56:09,12,14.454,169.41586467328,20.341208,2.5053728,3.5268701916,70.4,0,0,1024,1024,1024,881,70.4,-1,50,3.641,3.659,3.64,3.658,0,0,6,GPS_Atti,
41.2960134807519,-72.9649859634983,169.41586467328,20.341208,1.11847,3.7408465764,10500,2016-09-26 18:56:09,12,14.454,169.41586467328,20.341208,2.5053728,3.7408465764,70.1,0,0,1024,1024,1024,665,69.7,-1,50,3.641,3.659,3.64,3.658,0,0,6,GPS_Atti,
41.296014944096,-72.9649862025503,169.41586467328,20.341208,1.11847,4.2784778272,10600,2016-09-26 18:56:09,12,14.796,169.41586467328,20.341208,2.5053728,4.2784778272,66.7,0,0,1024,1024,1024,599,68,-1,50,3.696,3.702,3.692,3.706,0,0,6,GPS_Atti,
41.2960153764951,-72.964986033462,169.41586467328,20.341208,0.9171454,4.4316602468,10700,2016-09-26 18:56:09,12,14.796,169.41586467328,20.341208,2.5053728,4.4316602468,60.2,0,0,1024,1024,1024,657,62.3,-1,50,3.696,3.702,3.692,3.706,0,0,6,GPS_Atti,
41.2960160198875,-72.9649853375161,169.74394867328,20.669292,1.006623,4.6551510676,10800,2016-09-26 18:56:10,12,14.796,169.74394867328,20.669292,2.5053728,4.6551510676,53.5,0,0,1024,1024,1024,673,57.7,-1,50,3.696,3.702,3.692,3.706,0,0,6,GPS_Atti,
41.2960163415423,-72.9649850105176,169.74394867328,20.669292,0.8052984,4.7702429348,10900,2016-09-26 18:56:10,12,14.796,169.74394867328,20.669292,2.5053728,4.7702429348,47.1,0,0,1024,1024,1024,688,52.1,-1,50,3.696,3.702,3.692,3.706,0,0,6,GPS_Atti,
41.2960174852058,-72.9649843483739,169.74394867328,20.669292,0.9395148,5.1880907172,11000,2016-09-26 18:56:10,12,14.796,169.74394867328,20.669292,2.5053728,5.1880907172,41.8,0,0,1024,1024,1024,716,46.7,-1,50,3.696,3.702,3.692,3.706,0,0,6,GPS_Atti,
41.296017772662,-72.9649839012285,169.74394867328,20.669292,0.8052984,5.29691618,11100,2016-09-26 18:56:10,12,14.796,169.74394867328,20.669292,2.5053728,5.29691618,36.3,0,0,1024,1024,1024,698,41.5,-1,50,3.696,3.702,3.692,3.706,0,0,6,GPS_Atti,
41.2960181557214,-72.9649828550154,170.07203267328,20.997376,1.11847,5.4562993872,11200,2016-09-26 18:56:10,12,14.796,170.07203267328,20.997376,2.5053728,5.4562993872,31.5,0,0,1024,1024,1024,710,36.5,-1,50,3.696,3.702,3.692,3.706,0,0,6,GPS_Atti,
41.2960189592384,-72.9649822279817,170.07203267328,20.997376,1.006623,5.766240342,11300,2016-09-26 18:56:10,12,14.796,170.07203267328,20.997376,2.5053728,5.766240342,27,0,0,1024,1024,1024,831,31.8,-1,50,3.696,3.702,3.692,3.706,0,0,6,GPS_Atti,
41.2960196338714,-72.964981357111,170.07203267328,20.997376,1.006623,6.0427495372,11400,2016-09-26 18:56:10,13,14.796,170.07203267328,20.997376,2.5053728,6.0427495372,22.2,0,0,1024,1024,1024,863,27.5,-1,50,3.696,3.702,3.692,3.706,0,0,6,GPS_Atti,
41.2960203424543,-72.964979770963,170.07203267328,20.997376,1.006623,6.376968708,11600,2016-09-26 18:56:10,13,14.796,170.07203267328,20.997376,2.5053728,6.376968708,16.7,0,0,1024,1024,1024,841,24,-1,50,3.696,3.702,3.692,3.706,0,0,6,GPS_Atti,
41.2960205215716,-72.9649791916898,170.07203267328,20.997376,0.9171454,6.4763125432,11700,2016-09-26 18:56:10,13,14.694,170.07203267328,20.997376,2.5053728,6.4763125432,14.6,0,0,1024,1024,1024,915,21.2,-1,50,3.659,3.68,3.674,3.682,0,0,6,GPS_Atti,
41.2960206267226,-72.9649785809691,170.07203267328,20.997376,0.9171454,6.5547574276,11800,2016-09-26 18:56:10,13,14.694,170.07203267328,20.997376,2.5053728,6.5547574276,13.4,0,0,1024,1024,1024,990,19,-1,50,3.659,3.68,3.674,3.682,0,0,6,GPS_Atti,
41.2960209016216,-72.9649779395448,170.07203267328,20.997376,0.9171454,6.6985566448,11900,2016-09-26 18:56:11,13,14.694,170.07203267328,20.997376,2.5053728,6.6985566448,13.7,0,0,1024,1024,1024,1016,17.7,-1,50,3.659,3.68,3.674,3.682,0,0,6,GPS_Atti,
41.2960207188019,-72.9649773094213,170.07203267328,20.997376,0.671082,6.6851708176,12000,2016-09-26 18:56:11,13,14.694,170.07203267328,20.997376,2.5053728,6.6985566448,13.4,0,0,1024,1024,1024,999,17,-1,50,3.659,3.68,3.674,3.682,0,0,6,GPS_Atti,
41.2960207919833,-72.9649768410079,170.07203267328,20.997376,0.671082,6.7506891924,12100,2016-09-26 18:56:11,13,14.694,170.07203267328,20.997376,2.5053728,6.7506891924,13.7,0,0,1024,1024,1024,1024,16.6,-1,50,3.659,3.68,3.674,3.682,0,0,6,GPS_Atti,
41.2960205546099,-72.9649765645798,170.07203267328,20.997376,0.671082,6.69373381,12200,2016-09-26 18:56:11,13,14.694,170.07203267328,20.997376,2.5053728,6.7506891924,15.1,0,0,1024,1024,1024,1024,16.3,-1,50,3.659,3.68,3.674,3.682,0,0,6,GPS_Atti,
41.2960205814853,-72.9649761529273,170.07203267328,20.997376,0.671082,6.7415684572,12300,2016-09-26 18:56:11,13,14.694,170.07203267328,20.997376,2.5053728,6.7506891924,15.5,0,0,1024,1024,1024,1007,16.2,-1,50,3.659,3.68,3.674,3.682,0,0,6,GPS_Atti,
41.2960202898716,-72.9649761460292,170.07203267328,20.997376,0.447388,6.6426839396,12400,2016-09-26 18:56:11,13,14.694,170.07203267328,20.997376,2.5053728,6.7506891924,16.2,0,0,1024,1024,1024,810,16.2,-1,50,3.659,3.68,3.674,3.682,0,0,6,GPS_Atti,
41.2960199669433,-72.9649760067213,170.07203267328,20.997376,0.447388,6.5465225192,12500,2016-09-26 18:56:11,13,14.694,170.07203267328,20.997376,2.5053728,6.7506891924,15.4,0,0,1024,1024,1024,993,14.7,-1,50,3.659,3.68,3.674,3.682,0,0,6,GPS_Atti,
41.2960194886649,-72.9649758606846,170.07203267328,20.997376,0.4921268,6.3995736956,12600,2016-09-26 18:56:11,13,14.694,170.07203267328,20.997376,2.5053728,6.7506891924,14.2,0,0,1024,1024,1024,1024,14.7,-1,50,3.659,3.68,3.674,3.682,0,0,6,GPS_Atti,
41.2960194016293,-72.9649755782946,170.07203267328,20.997376,0.447388,6.4002298636,12700,2016-09-26 18:56:11,13,14.759,170.07203267328,20.997376,2.5053728,6.7506891924,14.4,0,0,1024,1024,1024,989,14.7,-1,50,3.699,3.697,3.684,3.655,0,0,6,GPS_Atti,
41.2960185003193,-72.9649759019877,170.07203267328,20.997376,0.3131716,6.063156362,12800,2016-09-26 18:56:12,13,14.759,170.07203267328,20.997376,2.5053728,6.7506891924,14.6,0,0,1024,1024,1024,1002,14.6,-1,50,3.699,3.697,3.684,3.655,0,0,6,GPS_Atti,
41.2960183674336,-72.9649756740823,170.07203267328,20.997376,0.3131716,6.0441602984,12900,2016-09-26 18:56:12,13,14.759,170.07203267328,20.997376,2.5053728,6.7506891924,14,0,0,1024,1024,1024,1024,14.5,-1,50,3.699,3.697,3.684,3.655,0,0,6,GPS_Atti,
41.2960179067731,-72.9649757967505,170.07203267328,20.997376,0.3131716,5.8772639676,13000,2016-09-26 18:56:12,13,14.759,170.07203267328,20.997376,2.5053728,6.7506891924,13.8,0,0,1024,1024,1024,957,14.5,-1,50,3.699,3.697,3.684,3.655,0,0,6,GPS_Atti,
41.2960169235643,-72.9649762233701,170.07203267328,20.997376,0.223694,5.5026576564,13200,2016-09-26 18:56:12,13,14.759,170.07203267328,20.997376,2.5053728,6.7506891924,13.5,0,0,1024,1024,1024,869,14.4,-1,50,3.699,3.697,3.684,3.655,0,0,6,GPS_Atti,
41.2960168507863,-72.9649760963959,170.07203267328,20.997376,0.223694,5.4935697296,13300,2016-09-26 18:56:12,13,14.759,170.07203267328,20.997376,2.5053728,6.7506891924,12.7,0,0,1024,1024,1024,726,13.7,-1,50,3.699,3.697,3.684,3.655,0,0,6,GPS_Atti,
41.296015846045,-72.9649767778406,170.07203267328,20.997376,0,5.0822836272,13400,2016-09-26 18:56:12,13,14.759,170.07203267328,20.997376,2.5053728,6.7506891924,10.5,0,0,1024,1024,1024,728,11.7,-1,50,3.699,3.697,3.684,3.655,0,0,6,GPS_Atti,
41.2960157936524,-72.9649766595652,169.74394867328,20.669292,0.223694,5.079068404,13500,2016-09-26 18:56:12,13,14.759,170.07203267328,20.997376,2.5053728,6.7506891924,6.9,0,0,1024,1024,1024,710,9.7,-1,50,3.699,3.697,3.684,3.655,0,0,6,GPS_Atti,
41.2960153836788,-72.9649769216394,169.74394867328,20.669292,0,4.9131563252,13600,2016-09-26 18:56:12,13,14.759,170.07203267328,20.997376,2.5053728,6.7506891924,2.1,0,0,1024,1024,1024,719,7.6,-1,50,3.699,3.697,3.684,3.655,0,0,6,GPS_Atti,
41.2960148350718,-72.9649772503668,169.74394867328,20.669292,0,4.693733746,13700,2016-09-26 18:56:12,13,14.759,170.07203267328,20.997376,2.5053728,6.7506891924,357.2,0,0,1024,1024,1024,1024,5,-1,50,3.699,3.697,3.684,3.655,0,0,6,GPS_Atti,
41.2960143208512,-72.964977516539,169.74394867328,20.669292,0,4.4931431884,13800,2016-09-26 18:56:13,13,14.67,170.07203267328,20.997376,2.5053728,6.7506891924,353.2,0,0,1024,1024,1024,1024,2.5,-1,50,3.694,3.719,3.697,3.666,0,0,6,GPS_Atti,
41.2960143051411,-72.9649774197453,169.74394867328,20.669292,0.223694,4.4997704852,13900,2016-09-26 18:56:13,13,14.67,170.07203267328,20.997376,2.5053728,6.7506891924,351.9,0,0,1024,1024,1024,1024,359.4,-1,50,3.694,3.719,3.697,3.666,0,0,6,GPS_Atti,
41.2960141614877,-72.964977788469,170.07203267328,20.997376,0,4.4082678576,14000,2016-09-26 18:56:13,13,14.67,170.07203267328,20.997376,2.5053728,6.7506891924,350.8,0,0,1024,1024,1024,945,355.4,-1,50,3.694,3.719,3.697,3.666,0,0,6,GPS_Atti,
41.2960136076988,-72.9649782418866,170.07203267328,20.997376,0.223694,4.17240827,14100,2016-09-26 18:56:13,13,14.67,170.07203267328,20.997376,2.5053728,6.7506891924,349.8,0,0,1024,1024,1024,759,354.3,-1,50,3.694,3.719,3.697,3.666,0,0,6,GPS_Atti,
41.2960132042386,-72.9649786020176,170.07203267328,20.997376,0,3.9972442224,14200,2016-09-26 18:56:13,13,14.67,170.07203267328,20.997376,2.5053728,6.7506891924,349.3,0,0,1024,1024,1024,797,352.7,-1,50,3.694,3.719,3.697,3.666,0,0,6,GPS_Atti,
41.2960132585522,-72.9649784343836,170.07203267328,20.997376,0.223694,4.0347114152,14300,2016-09-26 18:56:13,13,14.67,170.07203267328,20.997376,2.5053728,6.7506891924,348.5,0,0,1024,1024,1024,797,350.4,-1,50,3.694,3.719,3.697,3.666,0,0,6,GPS_Atti,
41.296012519099,-72.9649790923686,170.07203267328,20.997376,0.223694,3.7139436884,14400,2016-09-26 18:56:13,13,14.67,170.07203267328,20.997376,2.5053728,6.7506891924,345.5,0,0,1024,1024,1075,1024,348.8,-1,50,3.694,3.719,3.697,3.666,0,0,6,GPS_Atti,
41.2960122128213,-72.9649788891918,170.07203267328,20.997376,0.223694,3.6369423736,14600,2016-09-26 18:56:13,13,14.67,170.07203267328,20.997376,2.5053728,6.7506891924,340.3,0,0,1024,1024,1307,986,347.6,-1,50,3.694,3.719,3.697,3.666,0,0,6,GPS_Atti,
41.2960117585954,-72.9649792894445,170.07203267328,20.997376,0.4921268,3.4398951232,14700,2016-09-26 18:56:13,13,14.67,170.07203267328,20.997376,2.5053728,6.7506891924,338,0,0,1024,1024,1473,948,345.6,-1,50,3.694,3.719,3.697,3.666,0,0,6,GPS_Atti,
41.2960113979764,-72.9649794778621,170.40011667328,21.32546,0.223694,3.2989502368,14800,2016-09-26 18:56:13,13,14.67,170.40011667328,21.32546,2.5053728,6.7506891924,336.2,0,0,1024,1024,1508,1024,343.5,-1,50,3.694,3.719,3.697,3.666,0,0,6,GPS_Atti,
41.2960115906444,-72.9649793078474,170.72820067328,21.653544,0.3131716,3.3825788484,14900,2016-09-26 18:56:14,13,14.688,170.72820067328,21.653544,2.5053728,6.7506891924,335,0,0,1024,1024,1530,1024,341.6,-1,50,3.65,3.688,3.682,3.668,0,0,6,GPS_Atti,
41.2960108055563,-72.9649800081585,171.05628467328,21.981628,0.3131716,3.04121072724,15000,2016-09-26 18:56:14,13,14.688,171.05628467328,21.981628,2.5053728,6.7506891924,334.7,0,0,1024,1024,1517,1024,340.2,-1,50,3.65,3.688,3.682,3.668,0,0,6,GPS_Atti,
41.2960110530051,-72.9649797937873,171.38436867328,22.309712,0.6263432,3.14797582252,15100,2016-09-26 18:56:14,13,14.688,171.38436867328,22.309712,2.5053728,6.7506891924,334,0,0,1024,1024,1513,1024,339.2,-1,50,3.65,3.688,3.682,3.668,0,0,6,GPS_Atti,
41.296010697174,-72.9649797977404,172.36862067328,23.293964,0.6263432,3.03087608124,15200,2016-09-26 18:56:14,13,14.688,172.36862067328,23.293964,2.5053728,6.7506891924,333.3,0,0,1024,1024,1515,1024,337.8,-1,50,3.65,3.688,3.682,3.668,0,0,6,GPS_Atti,
41.2960103752128,-72.9649800979272,173.35287267328,24.278216,0.9395148,2.88907817644,15300,2016-09-26 18:56:14,13,14.688,173.35287267328,24.278216,2.5053728,6.7506891924,332.9,0,0,1024,1024,1468,1024,337.8,-1,50,3.65,3.688,3.682,3.668,0,0,6,GPS_Atti,
41.2960100456592,-72.9649800112742,174.00904067328,24.934384,0.8052984,2.7926346038,15400,2016-09-26 18:56:14,12,14.688,174.00904067328,24.934384,2.5053728,6.7506891924,332.7,0,0,1024,1024,1304,1024,336.8,-1,50,3.65,3.688,3.682,3.668,0,0,6,GPS_Atti,
41.2960103792636,-72.9649796727259,174.99329267328,25.918636,1.11847,2.94364838816,15500,2016-09-26 18:56:14,12,14.688,174.99329267328,25.918636,2.5053728,6.7506891924,333,0,0,1024,1024,1125,1024,336.5,-1,50,3.65,3.688,3.682,3.668,0,0,6,GPS_Atti,
41.296009462749,-72.9649796746454,175.64946067328,26.574804,0.9395148,2.65336950748,15600,2016-09-26 18:56:14,12,14.688,175.64946067328,26.574804,2.5053728,6.7506891924,333.2,0,0,1024,1024,1024,1024,336.4,-1,50,3.65,3.688,3.682,3.668,0,0,6,GPS_Atti,
41.2960098457876,-72.9649792158723,176.30562867328,27.230972,1.11847,2.83849746616,15700,2016-09-26 18:56:14,12,14.688,176.30562867328,27.230972,2.5053728,6.7506891924,333.1,0,0,1024,1024,1024,1024,336.2,-1,50,3.65,3.688,3.682,3.668,0,0,6,GPS_Atti,
41.2960099181809,-72.964978374357,177.28988067328,28.215224,1.4316416,2.98950796968,15900,2016-09-26 18:56:15,12,14.688,177.28988067328,28.215224,2.5053728,6.7506891924,333,0,0,1024,1024,1024,1024,336.1,-1,50,3.65,3.688,3.682,3.668,0,0,6,GPS_Atti,
41.2960095574511,-72.9649780439084,177.94604867328,28.871392,1.4316416,2.93947515968,16000,2016-09-26 18:56:15,13,14.708,177.94604867328,28.871392,2.5053728,6.7506891924,333,0,0,1024,1024,1024,1024,335.9,-1,50,3.674,3.673,3.636,3.622,0,0,6,GPS_Atti,
41.2960089996225,-72.9649778955169,178.27413267328,29.199476,1.006623,2.810531586,16200,2016-09-26 18:56:15,12,14.708,178.27413267328,29.199476,2.5053728,6.7506891924,333.4,0,0,1024,1024,1024,1024,335.6,-1,50,3.674,3.673,3.636,3.622,0,0,6,GPS_Atti,
41.2960092318744,-72.9649780729093,178.93030067328,29.855644,0.894776,2.84259523532,16400,2016-09-26 18:56:15,12,14.708,178.93030067328,29.855644,2.5053728,6.7506891924,333.9,0,0,1024,1024,1203,1024,335.5,-1,50,3.674,3.673,3.636,3.622,0,0,6,GPS_Atti,
41.2960088248203,-72.9649785760841,178.93030067328,29.855644,1.3645334,2.64018053068,16500,2016-09-26 18:56:15,12,14.708,178.93030067328,29.855644,2.5053728,6.7506891924,334.2,0,0,1024,1024,1374,1024,335.4,-1,50,3.674,3.673,3.636,3.622,0,0,6,GPS_Atti,
41.2960088935914,-72.9649791870097,179.25838467328,30.183728,1.11847,2.55625664348,16600,2016-09-26 18:56:15,13,14.708,179.25838467328,30.183728,2.5053728,6.7506891924,334.6,0,0,1024,1024,1344,1024,335.4,-1,50,3.674,3.673,3.636,3.622,0,0,6,GPS_Atti,
41.2960095049407,-72.9649791611931,179.58646867328,30.511812,1.565858,2.74250993028,16700,2016-09-26 18:56:15,13,14.708,179.58646867328,30.511812,2.5053728,6.7506891924,334.7,0,0,1024,1024,1349,1024,335.3,-1,50,3.674,3.673,3.636,3.622,0,0,6,GPS_Atti,
41.2960087509088,-72.9649804553776,179.91455267328,30.839896,1.565858,2.32048563856,16800,2016-09-26 18:56:16,13,14.708,179.91455267328,30.839896,2.5053728,6.7506891924,334.7,0,0,1024,1024,1291,1024,335.4,-1,50,3.674,3.673,3.636,3.622,0,0,6,GPS_Atti,
41.296009482895,-72.9649803586751,180.24263667328,31.16798,1.8119214,2.566601132,16900,2016-09-26 18:56:16,13,14.708,180.24263667328,31.16798,2.5053728,6.7506891924,334.5,0,0,1024,1024,1233,1024,335.4,-1,50,3.674,3.673,3.636,3.622,0,0,6,GPS_Atti,
41.2960097740628,-72.9649806590698,180.89880467328,31.824148,1.565858,2.62471793176,17000,2016-09-26 18:56:16,12,14.708,180.89880467328,31.824148,2.5053728,6.7506891924,334.5,0,0,1024,1024,1273,1024,335.3,-1,50,3.674,3.673,3.636,3.622,0,0,6,GPS_Atti,
41.2960105279103,-72.9649804940022,181.22688867328,32.152232,1.8119214,2.8937664968,17100,2016-09-26 18:56:16,12,14.708,181.22688867328,32.152232,2.5053728,6.7506891924,334,0,0,1024,1024,1333,1024,335.3,-1,50,3.674,3.673,3.636,3.622,0,0,6,GPS_Atti,
41.2960100696132,-72.9649813727587,181.55497267328,32.480316,1.8119214,2.64812016348,17200,2016-09-26 18:56:16,12,14.542,181.55497267328,32.480316,2.5053728,6.7506891924,334.4,0,0,1024,1024,1083,1024,335.3,-1,50,3.66,3.676,3.668,3.682,0,0,6,GPS_Atti,
41.2960108753845,-72.9649811396226,181.88305667328,32.8084,2.0579848,2.94622384756,17300,2016-09-26 18:56:16,12,14.542,181.88305667328,32.8084,2.5053728,6.7506891924,335.3,0,0,1024,1024,1024,1024,335.3,-1,50,3.66,3.676,3.668,3.682,0,0,6,GPS_Atti,
41.2960113037836,-72.9649813048944,182.21114067328,33.136484,2.0356154,3.079724508,17400,2016-09-26 18:56:16,12,14.542,182.21114067328,33.136484,2.5053728,6.7506891924,335.1,0,0,1024,1024,1024,1024,335.3,-1,50,3.66,3.676,3.668,3.682,0,0,6,GPS_Atti,
41.2960117783967,-72.9649818768725,182.86730867328,33.792652,2.0356154,3.20292989252,17600,2016-09-26 18:56:16,13,14.542,182.86730867328,33.792652,2.5053728,6.7506891924,333.1,0,0,1024,1024,1024,1024,335.3,-1,50,3.66,3.676,3.668,3.682,0,0,6,GPS_Atti,
41.2960126455191,-72.9649816531387,183.19539267328,34.120736,2.0579848,3.5247048372,17700,2016-09-26 18:56:16,13,14.542,183.19539267328,34.120736,2.5053728,6.7506891924,332.7,0,0,1024,1024,1024,1024,335.2,-1,50,3.66,3.676,3.668,3.682,0,0,6,GPS_Atti,
41.2960127483035,-72.9649823574931,183.19539267328,34.120736,2.0356154,3.5201444696,17800,2016-09-26 18:56:16,13,14.542,183.19539267328,34.120736,2.5053728,6.7506891924,332.5,0,0,1024,1024,1024,1063,335.2,-1,50,3.66,3.676,3.668,3.682,0,0,6,GPS_Atti,
41.296013609,-72.9649821235365,183.52347667328,34.44882,2.0579848,3.8406169208,17900,2016-09-26 18:56:17,13,14.542,183.52347667328,34.44882,2.5053728,6.7506891924,332.3,0,0,1024,1024,1024,1170,335.1,-1,50,3.66,3.676,3.668,3.682,0,0,6,GPS_Atti,
41.2960141344981,-72.9649822245634,183.85156067328,34.776904,1.8119214,4.024278344,18000,2016-09-26 18:56:17,13,14.542,183.85156067328,34.776904,2.5053728,6.7506891924,332.9,0,0,1024,1024,1024,1265,335.5,-1,50,3.66,3.676,3.668,3.682,0,0,6,GPS_Atti,
41.2960144988668,-72.9649825705869,183.85156067328,34.776904,2.0579848,4.140584122,18100,2016-09-26 18:56:17,13,14.542,183.85156067328,34.776904,2.5053728,6.7506891924,334.8,0,0,1024,1024,1024,1386,336.3,-1,50,3.66,3.676,3.668,3.682,0,0,6,GPS_Atti,
41.2960148311483,-72.9649825452578,184.17964467328,35.104988,1.8119214,4.2615486928,18200,2016-09-26 18:56:17,13,14.542,184.17964467328,35.104988,2.5053728,6.7506891924,339.1,0,0,1024,1024,1024,1342,337.8,-1,50,3.66,3.676,3.668,3.682,0,0,6,GPS_Atti,
41.2960156001487,-72.9649823302181,184.17964467328,35.104988,1.8119214,4.5476707492,18300,2016-09-26 18:56:17,13,14.725,184.17964467328,35.104988,2.5053728,6.7506891924,344.3,0,0,1024,1024,1024,1310,339.9,-1,50,3.623,3.649,3.629,3.633,0,0,6,GPS_Atti,
41.2960156249834,-72.9649827424592,184.17964467328,35.104988,1.5882274,4.5416011952,18400,2016-09-26 18:56:17,13,14.725,184.17964467328,35.104988,2.5053728,6.7506891924,349.4,0,0,1024,1024,1024,1351,342.2,-1,50,3.623,3.649,3.629,3.633,0,0,6,GPS_Atti,
41.2960163598516,-72.9649825367349,184.50772867328,35.433072,1.8119214,4.8146327,18500,2016-09-26 18:56:17,13,14.725,184.50772867328,35.433072,2.5053728,6.7506891924,354.2,0,0,1024,1024,1024,1371,350.7,-1,50,3.623,3.649,3.629,3.633,0,0,6,GPS_Atti,
41.2960167298434,-72.9649823359482,184.50772867328,35.433072,1.5882274,4.9556103948,18600,2016-09-26 18:56:17,13,14.725,184.50772867328,35.433072,2.5053728,6.7506891924,0.1,0,0,1024,1024,1024,1372,356,-1,50,3.623,3.649,3.629,3.633,0,0,6,GPS_Atti,
41.2960169969828,-72.9649825072936,184.50772867328,35.433072,1.6329662,5.0462928124,18700,2016-09-26 18:56:17,13,14.725,184.50772867328,35.433072,2.5053728,6.7506891924,5.5,0,0,1024,1024,1024,1419,1.9,-1,50,3.623,3.649,3.629,3.633,0,0,6,GPS_Atti,
41.2960172792115,-72.9649821498755,184.50772867328,35.433072,1.4092722,5.1611222124,18800,2016-09-26 18:56:18,13,14.725,184.50772867328,35.433072,2.5053728,6.7506891924,11.4,0,0,1024,1024,1024,1411,7.6,-1,50,3.623,3.649,3.629,3.633,0,0,6,GPS_Atti,
41.2960178946946,-72.9649818614283,184.83581267328,35.761156,1.4092722,5.3946524036,18900,2016-09-26 18:56:18,13,14.725,184.83581267328,35.761156,2.5053728,6.7506891924,18.2,0,0,1024,1024,1024,1024,13.7,-1,50,3.623,3.649,3.629,3.633,0,0,6,GPS_Atti,
41.2960178084927,-72.964982055232,184.83581267328,35.761156,1.4092722,5.3559713,19000,2016-09-26 18:56:18,13,14.725,184.83581267328,35.761156,2.5053728,6.7506891924,23.6,0,0,1024,1024,1024,1024,18.6,-1,50,3.623,3.649,3.629,3.633,0,0,6,GPS_Atti,
41.2960183695784,-72.9649817636659,184.83581267328,35.761156,1.4092722,5.5699476848,19100,2016-09-26 18:56:18,13,14.725,184.83581267328,35.761156,2.5053728,6.7506891924,26.4,0,0,1024,1024,1024,1024,22.1,-1,50,3.623,3.649,3.629,3.633,0,0,6,GPS_Atti,
41.2960190857437,-72.9649814796325,185.16389667328,36.08924,1.2079476,5.8399936252,19300,2016-09-26 18:56:18,13,14.725,185.16389667328,36.08924,2.5053728,6.7506891924,28.1,0,0,1024,1024,1024,1024,24.1,-1,50,3.623,3.649,3.629,3.633,0,0,6,GPS_Atti,
41.2960195875223,-72.9649812641048,185.16389667328,36.08924,1.2079476,6.030019878,19400,2016-09-26 18:56:18,13,14.725,185.16389667328,36.08924,2.5053728,6.7506891924,28.2,0,0,1024,1024,1024,1024,25.2,-1,50,3.623,3.649,3.629,3.633,0,0,6,GPS_Atti,
41.2960201011685,-72.9649809263225,185.16389667328,36.08924,1.2079476,6.2300198844,19500,2016-09-26 18:56:18,13,14.725,185.16389667328,36.08924,2.5053728,6.7506891924,28.2,0,0,1024,1024,1024,1024,25.9,-1,50,3.623,3.649,3.629,3.633,0,0,6,GPS_Atti,
41.2960206080393,-72.9649807455908,185.16389667328,36.08924,1.2079476,6.4206694968,19600,2016-09-26 18:56:18,13,14.725,185.16389667328,36.08924,2.5053728,6.7506891924,28.2,0,0,1024,1024,1024,1024,26.3,-1,50,3.623,3.649,3.629,3.633,0,0,6,GPS_Atti,
41.2960210993719,-72.9649803923244,185.16389667328,36.08924,1.2079476,6.61417344,19700,2016-09-26 18:56:18,13,14.725,185.16389667328,36.08924,2.5053728,6.7506891924,28,0,0,1024,1024,1024,1024,26.7,-1,50,3.623,3.649,3.629,3.633,0,0,6,GPS_Atti,
41.296021773646,-72.9649800084305,185.49198067328,36.417324,1.2079476,6.8753939208,19800,2016-09-26 18:56:19,13,14.725,185.49198067328,36.417324,2.5053728,6.8753939208,27.8,0,0,1024,1024,1024,1024,26.7,-1,50,3.623,3.649,3.629,3.633,0,0,6,GPS_Atti,
41.2960223154516,-72.9649797988735,185.49198067328,36.417324,1.2079476,7.080380804,19900,2016-09-26 18:56:19,13,14.725,185.49198067328,36.417324,2.5053728,7.080380804,27.7,0,0,1024,1024,1024,1024,26.8,-1,50,3.623,3.649,3.629,3.633,0,0,6,GPS_Atti,
41.2960229146276,-72.9649793145831,185.49198067328,36.417324,1.2974252,7.3208991844,20000,2016-09-26 18:56:19,13,14.725,185.49198067328,36.417324,2.5053728,7.3208991844,27,0,0,1024,1024,1024,1024,26.8,-1,50,3.623,3.649,3.629,3.633,0,0,6,GPS_Atti,
41.2960233508354,-72.9649789483727,185.49198067328,36.417324,1.11847,7.4974411848,20100,2016-09-26 18:56:19,13,14.725,185.49198067328,36.417324,2.5053728,7.4974411848,26.7,0,0,1024,1024,1024,1024,26.8,-1,50,3.623,3.649,3.629,3.633,0,0,6,GPS_Atti,
41.2960238832502,-72.9649784222993,185.49198067328,36.417324,1.11847,7.7184713756,20200,2016-09-26 18:56:19,13,14.725,185.49198067328,36.417324,2.5053728,7.7184713756,26.6,0,0,1024,1024,1024,1024,26.8,-1,50,3.623,3.649,3.629,3.633,0,0,6,GPS_Atti,
41.2960244651867,-72.9649780673867,185.49198067328,36.417324,0.8052984,7.9473755824,20300,2016-09-26 18:56:19,13,14.725,185.49198067328,36.417324,2.5053728,7.9473755824,26,0,0,1024,1024,1024,1024,26.8,-1,50,3.623,3.649,3.629,3.633,0,0,6,GPS_Atti,
41.2960250354454,-72.9649776612946,185.82006467328,36.745408,0.8052984,8.175689238,20400,2016-09-26 18:56:19,13,14.695,185.82006467328,36.745408,2.5053728,8.175689238,25.9,0,0,1024,1024,1024,1024,26.8,-1,50,3.679,3.697,3.659,3.66,0,0,6,GPS_Atti,
41.2960253481692,-72.9649773466226,185.82006467328,36.745408,0.8052984,8.3072181136,20500,2016-09-26 18:56:19,13,14.695,185.82006467328,36.745408,2.5053728,8.3072181136,25.8,0,0,1024,1024,1024,1024,26.8,-1,50,3.679,3.697,3.659,3.66,0,0,6,GPS_Atti,
41.2960261937504,-72.9649766006242,185.82006467328,36.745408,0.6263432,8.6571853164,20700,2016-09-26 18:56:19,13,14.695,185.82006467328,36.745408,2.5053728,8.6571853164,25.9,0,0,1024,1024,1024,1024,26.7,-1,50,3.679,3.697,3.659,3.66,0,0,6,GPS_Atti,
41.2960263908681,-72.9649761963589,185.82006467328,36.745408,0.6263432,8.7557089416,20800,2016-09-26 18:56:19,13,14.695,185.82006467328,36.745408,2.5053728,8.7557089416,25.8,0,0,1024,1024,1024,1024,26.7,-1,50,3.679,3.697,3.659,3.66,0,0,6,GPS_Atti,
41.2960268268292,-72.9649757834422,185.82006467328,36.745408,0.4921268,8.9395015984,20900,2016-09-26 18:56:20,13,14.695,185.82006467328,36.745408,2.5053728,8.9395015984,25.8,0,0,1024,1024,1024,1024,26.7,-1,50,3.679,3.697,3.659,3.66,0,0,6,GPS_Atti,
41.2960269233524,-72.9649753363906,185.82006467328,36.745408,0.4921268,9.0076774536,21000,2016-09-26 18:56:20,13,14.695,185.82006467328,36.745408,2.5053728,9.0076774536,26.4,0,0,1024,1024,1024,1024,26.7,-1,50,3.679,3.697,3.659,3.66,0,0,6,GPS_Atti,
41.2960270174693,-72.9649750871083,185.82006467328,36.745408,0.223694,9.0603349356,21100,2016-09-26 18:56:20,13,14.695,185.82006467328,36.745408,2.5053728,9.0603349356,26.4,0,0,1024,1024,1024,1024,26.7,-1,50,3.679,3.697,3.659,3.66,0,0,6,GPS_Atti,
41.2960274038034,-72.9649742889169,185.82006467328,36.745408,0.447388,9.2605974092,21200,2016-09-26 18:56:20,13,14.695,185.82006467328,36.745408,2.5053728,9.2605974092,27,0,0,1024,1024,1024,1024,26.7,-1,50,3.679,3.697,3.659,3.66,0,0,6,GPS_Atti,
41.2960274427059,-72.9649740531153,185.82006467328,36.745408,0.223694,9.294291636,21300,2016-09-26 18:56:20,13,14.695,185.82006467328,36.745408,2.5053728,9.294291636,27.1,0,0,1024,1024,1024,1024,26.7,-1,50,3.679,3.697,3.659,3.66,0,0,6,GPS_Atti,
41.2960273202122,-72.9649735509772,185.82006467328,36.745408,0.223694,9.2963913736,21400,2016-09-26 18:56:20,13,14.695,185.82006467328,36.745408,2.5053728,9.2963913736,26.7,0,0,1024,1024,1024,1024,26.7,-1,50,3.679,3.697,3.659,3.66,0,0,6,GPS_Atti,
41.2960274805189,-72.9649730603456,185.82006467328,36.745408,0.223694,9.3966210356,21500,2016-09-26 18:56:20,13,14.547,185.82006467328,36.745408,2.5053728,9.3966210356,27.2,0,0,1024,1024,1024,1024,26.7,-1,50,3.627,3.634,3.627,3.65,0,0,6,GPS_Atti,
41.2960273842732,-72.9649726767962,185.82006467328,36.745408,0.223694,9.400098726,21600,2016-09-26 18:56:20,13,14.547,185.82006467328,36.745408,2.5053728,9.400098726,27.2,0,0,1024,1024,1024,1024,26.7,-1,50,3.627,3.634,3.627,3.65,0,0,6,GPS_Atti,
41.296027317341,-72.9649725572731,185.82006467328,36.745408,0,9.3888782532,21700,2016-09-26 18:56:20,13,14.547,185.82006467328,36.745408,2.5053728,9.400098726,26.9,0,0,1024,1024,1024,1024,26.7,-1,50,3.627,3.634,3.627,3.65,0,0,6,GPS_Atti,
41.2960270742019,-72.9649718994556,185.82006467328,36.745408,0.223694,9.3722772028,21800,2016-09-26 18:56:21,13,14.547,185.82006467328,36.745408,2.5053728,9.400098726,27.3,0,0,1024,1024,1024,1024,26.7,-1,50,3.627,3.634,3.627,3.65,0,0,6,GPS_Atti,
41.2960269512676,-72.9649718324184,185.82006467328,36.745408,0.223694,9.3376643408,21900,2016-09-26 18:56:21,13,14.547,185.82006467328,36.745408,2.5053728,9.400098726,27.5,0,0,1024,1024,1024,1024,26.8,-1,50,3.627,3.634,3.627,3.65,0,0,6,GPS_Atti,
41.2960265471547,-72.9649717397682,185.82006467328,36.745408,0.223694,9.2112207672,22000,2016-09-26 18:56:21,13,14.547,185.82006467328,36.745408,2.5053728,9.400098726,28,0,0,1024,1024,1024,1024,26.8,-1,50,3.627,3.634,3.627,3.65,0,0,6,GPS_Atti,
41.2960263052252,-72.9649714559942,185.82006467328,36.745408,0.223694,9.1605317892,22100,2016-09-26 18:56:21,13,14.547,185.82006467328,36.745408,2.5053728,9.400098726,28.1,0,0,1024,1024,1024,1024,26.9,-1,50,3.627,3.634,3.627,3.65,0,0,6,GPS_Atti,
41.2960258450863,-72.9649712968654,185.82006467328,36.745408,0.447388,9.0244753544,22200,2016-09-26 18:56:21,13,14.547,185.82006467328,36.745408,2.5053728,9.400098726,28.1,0,0,1024,1024,1024,1024,26.9,-1,50,3.627,3.634,3.627,3.65,0,0,6,GPS_Atti,
41.2960256600751,-72.9649713885483,185.82006467328,36.745408,0.3131716,8.95259215,22300,2016-09-26 18:56:21,13,14.547,185.82006467328,36.745408,2.5053728,9.400098726,28,0,0,1024,1024,1024,1024,27,-1,50,3.627,3.634,3.627,3.65,0,0,6,GPS_Atti,
41.2960250885836,-72.9649712584909,185.82006467328,36.745408,0.4921268,8.777723378,22400,2016-09-26 18:56:21,13,14.547,185.82006467328,36.745408,2.5053728,9.400098726,27.8,0,0,1024,1024,1024,1024,27,-1,50,3.627,3.634,3.627,3.65,0,0,6,GPS_Atti,
41.2960245403467,-72.9649718218273,185.82006467328,36.745408,0.4921268,8.5314307192,22600,2016-09-26 18:56:21,13,14.615,185.82006467328,36.745408,2.5053728,9.400098726,26.8,0,0,1024,1024,1024,1024,27,-1,50,3.644,3.655,3.651,3.641,0,0,6,GPS_Atti,
41.296024205221,-72.9649719951208,185.82006467328,36.745408,0.4921268,8.4004923948,22700,2016-09-26 18:56:21,13,14.615,185.82006467328,36.745408,2.5053728,9.400098726,26.2,0,0,1024,1024,1024,1024,27,-1,50,3.644,3.655,3.651,3.641,0,0,6,GPS_Atti,
41.2960239061607,-72.9649723511174,185.82006467328,36.745408,0.4921268,8.2607614192,22800,2016-09-26 18:56:21,13,14.615,185.82006467328,36.745408,2.5053728,9.400098726,26.2,0,0,1024,1024,1024,1024,27,-1,50,3.644,3.655,3.651,3.641,0,0,6,GPS_Atti,
41.2960238080585,-72.9649726812627,186.14814867328,37.073492,0.447388,8.1912076112,22900,2016-09-26 18:56:22,13,14.615,186.14814867328,37.073492,2.5053728,9.400098726,26.2,0,0,1024,1024,1024,1024,27,-1,50,3.644,3.655,3.651,3.641,0,0,6,GPS_Atti,
41.2960231624701,-72.9649732313782,186.14814867328,37.073492,0.4921268,7.9149608832,23000,2016-09-26 18:56:22,13,14.615,186.14814867328,37.073492,2.5053728,9.400098726,26.3,0,0,1024,1024,1024,1024,27,-1,50,3.644,3.655,3.651,3.641,0,0,6,GPS_Atti,
41.2960230328092,-72.9649735028792,186.14814867328,37.073492,0.4921268,7.84202781,23100,2016-09-26 18:56:22,13,14.615,186.14814867328,37.073492,2.5053728,9.400098726,27,0,0,1024,1024,1024,1024,27,-1,50,3.644,3.655,3.651,3.641,0,0,6,GPS_Atti,
41.2960227243271,-72.9649739276758,186.47623267328,37.401576,0.3131716,7.6930448656,23200,2016-09-26 18:56:22,13,14.615,186.47623267328,37.401576,2.5053728,9.400098726,27.2,0,0,1024,1024,1024,1024,27,-1,50,3.644,3.655,3.651,3.641,0,0,6,GPS_Atti,
41.2960225558625,-72.96497410826,186.47623267328,37.401576,0.3131716,7.61729027,23300,2016-09-26 18:56:22,13,14.615,186.47623267328,37.401576,2.5053728,9.400098726,28.3,0,0,1024,1024,1024,1024,27,-1,50,3.644,3.655,3.651,3.641,0,0,6,GPS_Atti,
41.2960219140061,-72.9649746505904,186.47623267328,37.401576,0.3131716,7.3441931484,23400,2016-09-26 18:56:22,13,14.615,186.47623267328,37.401576,2.5053728,9.400098726,29.1,0,0,1024,1024,1024,1024,27.1,-1,50,3.644,3.655,3.651,3.641,0,0,6,GPS_Atti,
41.2960217541413,-72.9649747594008,186.47623267328,37.401576,0.223694,7.2789044324,23500,2016-09-26 18:56:22,13,14.615,186.47623267328,37.401576,2.5053728,9.400098726,30.4,0,0,1024,1024,1024,1024,27.3,-1,50,3.644,3.655,3.651,3.641,0,0,6,GPS_Atti,
41.2960214654272,-72.9649750904852,186.47623267328,37.401576,0.223694,7.14730994,23600,2016-09-26 18:56:22,13,14.617,186.47623267328,37.401576,2.5053728,9.400098726,31,0,0,1024,1024,1024,1024,27.6,-1,50,3.69,3.687,3.649,3.619,0,0,6,GPS_Atti,
41.296021143783,-72.9649755058989,186.14814867328,37.073492,0,6.9964241084,23700,2016-09-26 18:56:22,13,14.617,186.47623267328,37.401576,2.5053728,9.400098726,30.7,0,0,1024,1024,1024,1024,27.8,-1,50,3.69,3.687,3.649,3.619,0,0,6,GPS_Atti,
41.2960209649124,-72.9649756094132,186.14814867328,37.073492,0,6.9252954972,23800,2016-09-26 18:56:23,13,14.617,186.47623267328,37.401576,2.5053728,9.400098726,29.8,0,0,1024,1024,1024,1024,27.9,-1,50,3.69,3.687,3.649,3.619,0,0,6,GPS_Atti,
41.2960209985097,-72.9649756358502,186.14814867328,37.073492,0,6.9341209568,23900,2016-09-26 18:56:23,13,14.617,186.47623267328,37.401576,2.5053728,9.400098726,29.1,0,0,1024,1024,1024,1024,28,-1,50,3.69,3.687,3.649,3.619,0,0,6,GPS_Atti,
41.2960209383187,-72.9649762712328,186.47623267328,37.401576,0.223694,6.8526576996,24100,2016-09-26 18:56:23,13,14.617,186.47623267328,37.401576,2.5053728,9.400098726,28.6,0,0,1024,1024,1024,1024,28,-1,50,3.69,3.687,3.649,3.619,0,0,6,GPS_Atti,
41.2960210417664,-72.9649765052992,186.80431667328,37.72966,0,6.86679812,24200,2016-09-26 18:56:23,13,14.617,186.80431667328,37.72966,2.5053728,9.400098726,29.2,0,0,1024,1024,1024,1024,28,-1,50,3.69,3.687,3.649,3.619,0,0,6,GPS_Atti,
41.2960209301611,-72.9649769215006,186.80431667328,37.72966,0,6.7914700336,24300,2016-09-26 18:56:23,13,14.617,186.80431667328,37.72966,2.5053728,9.400098726,28.9,0,0,1024,1024,1024,1024,28,-1,50,3.69,3.687,3.649,3.619,0,0,6,GPS_Atti,
41.2960210475798,-72.9649771333514,186.80431667328,37.72966,0,6.8141078296,24400,2016-09-26 18:56:23,13,14.617,186.80431667328,37.72966,2.5053728,9.400098726,29,0,0,1024,1024,1024,1024,28.1,-1,50,3.69,3.687,3.649,3.619,0,0,6,GPS_Atti,
41.2960211431516,-72.964977139056,186.80431667328,37.72966,0.223694,6.8468506128,24500,2016-09-26 18:56:23,13,14.617,186.80431667328,37.72966,2.5053728,9.400098726,29.1,0,0,1024,1024,1024,1024,28.1,-1,50,3.69,3.687,3.649,3.619,0,0,6,GPS_Atti,
41.2960212523623,-72.9649777233741,186.80431667328,37.72966,0.223694,6.8379923448,24600,2016-09-26 18:56:23,13,14.617,186.80431667328,37.72966,2.5053728,9.400098726,28.7,0,0,1024,1024,1024,1024,28.1,-1,50,3.69,3.687,3.649,3.619,0,0,6,GPS_Atti,
41.29602138844,-72.9649777085291,187.13240067328,38.057744,0.223694,6.8867784356,24700,2016-09-26 18:56:23,13,14.686,187.13240067328,38.057744,2.5053728,9.400098726,28.5,0,0,1024,1024,1024,1024,28.1,-1,50,3.667,3.672,3.666,3.688,0,0,6,GPS_Atti,
41.2960215651391,-72.9649777440347,187.13240067328,38.057744,0.223694,6.9459975976,24800,2016-09-26 18:56:24,13,14.686,187.13240067328,38.057744,2.5053728,9.400098726,28.5,0,0,1024,1024,1024,1024,28.1,-1,50,3.667,3.672,3.666,3.688,0,0,6,GPS_Atti,
41.2960217525806,-72.9649779661117,187.13240067328,38.057744,0.223694,6.9953414312,24900,2016-09-26 18:56:24,13,14.686,187.13240067328,38.057744,2.5053728,9.400098726,28.7,0,0,1024,1024,1024,1024,28.1,-1,50,3.667,3.672,3.666,3.688,0,0,6,GPS_Atti,
41.2960218731052,-72.9649781286882,187.13240067328,38.057744,0.223694,7.0261157104,25000,2016-09-26 18:56:24,13,14.686,187.13240067328,38.057744,2.5053728,9.400098726,28.5,0,0,1024,1024,1024,1024,28.1,-1,50,3.667,3.672,3.666,3.688,0,0,6,GPS_Atti,
41.2960220260008,-72.9649780359723,187.46048467328,38.385828,0.223694,7.0865487832,25100,2016-09-26 18:56:24,13,14.686,187.46048467328,38.385828,2.5053728,9.400098726,28.4,0,0,1024,1024,1024,1024,28.1,-1,50,3.667,3.672,3.666,3.688,0,0,6,GPS_Atti,
41.2960221798339,-72.9649781584033,187.13240067328,38.057744,0.223694,7.132218076,25200,2016-09-26 18:56:24,13,14.686,187.46048467328,38.385828,2.5053728,9.400098726,28.5,0,0,1024,1024,1024,1024,28.1,-1,50,3.667,3.672,3.666,3.688,0,0,6,GPS_Atti,
41.2960223198509,-72.9649780431464,187.13240067328,38.057744,0.3131716,7.1896655844,25300,2016-09-26 18:56:24,13,14.686,187.46048467328,38.385828,2.5053728,9.400098726,28,0,0,1024,1024,1024,1024,28.1,-1,50,3.667,3.672,3.666,3.688,0,0,6,GPS_Atti,
41.2960225747208,-72.9649780184724,187.13240067328,38.057744,0.223694,7.2812994456,25400,2016-09-26 18:56:24,13,14.686,187.46048467328,38.385828,2.5053728,9.400098726,27.6,0,0,1024,1024,1024,1024,28.1,-1,50,3.667,3.672,3.666,3.688,0,0,6,GPS_Atti,
41.2960228465306,-72.9649780140645,187.46048467328,38.385828,0.3131716,7.3775920996,25600,2016-09-26 18:56:24,13,14.686,187.46048467328,38.385828,2.5053728,9.400098726,27.2,0,0,1024,1024,1024,1024,28.1,-1,50,3.667,3.672,3.666,3.688,0,0,6,GPS_Atti,
41.2960229674107,-72.9649778635344,187.46048467328,38.385828,0.3131716,7.4306760908,25700,2016-09-26 18:56:24,13,14.686,187.46048467328,38.385828,2.5053728,9.400098726,27.5,0,0,1024,1024,1024,1024,28.1,-1,50,3.667,3.672,3.666,3.688,0,0,6,GPS_Atti,
41.2960231737085,-72.964977883842,187.46048467328,38.385828,0.223694,7.5020999776,25800,2016-09-26 18:56:24,13,14.626,187.46048467328,38.385828,2.5053728,9.400098726,27.5,0,0,1024,1024,1024,1024,28.1,-1,50,3.649,3.66,3.635,3.661,0,0,6,GPS_Atti,
41.2960232341108,-72.9649777221462,187.46048467328,38.385828,0.223694,7.534613102,25900,2016-09-26 18:56:25,13,14.626,187.46048467328,38.385828,2.5053728,9.400098726,26.8,0,0,1024,1024,1024,1024,28.1,-1,50,3.649,3.66,3.635,3.661,0,0,6,GPS_Atti,
41.2960234238014,-72.9649774952422,187.46048467328,38.385828,0.223694,7.6175527372,26000,2016-09-26 18:56:25,13,14.626,187.46048467328,38.385828,2.5053728,9.400098726,26.9,0,0,1024,1024,1024,1024,28.1,-1,50,3.649,3.66,3.635,3.661,0,0,6,GPS_Atti,
41.2960234713196,-72.964977324307,187.13240067328,38.057744,0.447388,7.6466209796,26100,2016-09-26 18:56:25,13,14.626,187.46048467328,38.385828,2.5053728,9.400098726,26.5,0,0,1024,1024,1024,1024,28,-1,50,3.649,3.66,3.635,3.661,0,0,6,GPS_Atti,
41.2960234648956,-72.9649770433187,187.13240067328,38.057744,0.447388,7.6652233424,26200,2016-09-26 18:56:25,13,14.626,187.46048467328,38.385828,2.5053728,9.400098726,26.4,0,0,1024,1024,1024,1024,28,-1,50,3.649,3.66,3.635,3.661,0,0,6,GPS_Atti,
41.2960234624372,-72.9649767652651,187.13240067328,38.057744,0.447388,7.685695784,26300,2016-09-26 18:56:25,13,14.626,187.46048467328,38.385828,2.5053728,9.400098726,26.2,0,0,1024,1024,1024,1024,28,-1,50,3.649,3.66,3.635,3.661,0,0,6,GPS_Atti,
