latitude,longitude,altitude(feet),ascent(feet),speed(mph),distance(feet),time(millisecond),datetime(utc),satellites,voltage(v),max_altitude(feet),max_ascent(feet),max_speed(mph),max_distance(feet),compass_heading(degrees),isPhoto,isVideo,rc_elevator,rc_aileron,rc_throttle,rc_rudder,gimbal_heading(degrees),gimbal_pitch(degrees),battery_percent,voltageCell1,voltageCell2,voltageCell3,voltageCell4,voltageCell5,voltageCell6,flycStateRaw,flycState,message
41.2904087520873,-72.9651103103011,123.27288485024,0,0,0,0,2016-09-26 18:27:12,9,0,123.27288485024,0,0,0,9.8,0,0,1024,1024,1024,1024,9.4,0,67,4.014,4.016,4.013,4.016,0,0,6,GPS_Atti,
41.2904087504213,-72.9651103169825,123.27288485024,0,0,0.00192987867068,100,2016-09-26 18:27:12,9,0,123.27288485024,0,0,0.00192987867068,9.8,0,0,1024,1024,1024,1024,9.4,0,67,4.014,4.016,4.013,4.016,0,0,6,GPS_Atti,
41.2904087515445,-72.965110415862,123.27288485024,0,0,0.0289390101124,200,2016-09-26 18:27:12,9,0,123.27288485024,0,0,0.0289390101124,9.7,0,0,1024,1024,1024,1024,9.4,0,67,4.014,4.016,4.013,4.016,0,0,6,GPS_Atti,
41.2904087525584,-72.9651104145146,123.27288485024,0,0,0.0285694562948,300,2016-09-26 18:27:12,9,0,123.27288485024,0,0,0.0289390101124,9.8,0,0,1024,1024,1024,1024,9.4,0,67,4.014,4.016,4.013,4.016,0,0,6,GPS_Atti,
41.2904087627385,-72.9651104194819,123.27288485024,0,0,0.0301818907296,400,2016-09-26 18:27:12,9,0,123.27288485024,0,0,0.0301818907296,9.8,0,0,1024,1024,1024,1024,9.4,0,67,4.014,4.016,4.013,4.016,0,0,6,GPS_Atti,
41.2904087637505,-72.9651104191045,123.27288485024,0,0,0.0301292332476,500,2016-09-26 18:27:12,9,0,123.27288485024,0,0,0.0301818907296,9.8,0,0,1024,1024,1024,1024,9.4,0,67,4.014,4.016,4.013,4.016,0,0,6,GPS_Atti,
41.2904086649004,-72.965110519489,123.27288485024,0,0,0.065578086088,600,2016-09-26 18:27:13,9,0,123.27288485024,0,0,0.065578086088,9.8,0,0,1024,1024,1024,1024,9.4,0,67,4.014,4.016,4.013,4.016,0,0,6,GPS_Atti,
41.2904086564856,-72.9651105093741,123.27288485024,0,0,0.064768046692,700,2016-09-26 18:27:13,9,0,123.27288485024,0,0,0.065578086088,9.8,0,0,1024,1024,1024,1024,9.4,0,67,4.014,4.016,4.013,4.016,0,0,6,GPS_Atti,
41.2904086575796,-72.9651105087913,123.27288485024,0,0,0.064418965316,800,2016-09-26 18:27:13,9,0,123.27288485024,0,0,0.065578086088,9.8,0,0,1024,1024,1024,1024,9.4,0,67,4.014,4.016,4.013,4.016,0,0,6,GPS_Atti,
41.2904086591549,-72.9651105083416,123.27288485024,0,0,0.064008532232,900,2016-09-26 18:27:13,9,16.059,123.27288485024,0,0,0.065578086088,9.8,0,0,1024,1024,1024,1024,9.4,0,67,4.014,4.016,4.013,4.016,0,0,6,GPS_Atti,
41.2904085578418,-72.9651105216727,123.27288485024,0,0,0.0915436381,1000,2016-09-26 18:27:13,9,16.059,123.27288485024,0,0,0.0915436381,9.8,0,0,1024,1024,1024,1024,9.4,0,67,4.014,4.016,4.013,4.016,0,0,6,GPS_Atti,
41.290408559238,-72.9651105220346,123.27288485024,0,0,0.091212929428,1100,2016-09-26 18:27:13,9,16.059,123.27288485024,0,0,0.0915436381,9.8,0,0,1024,1024,1024,1024,9.4,0,67,4.014,4.016,4.013,4.016,0,0,6,GPS_Atti,
41.2904085601886,-72.9651106218176,123.27288485024,0,0,0.110430449728,1200,2016-09-26 18:27:13,9,16.059,123.27288485024,0,0,0.110430449728,9.8,0,0,1024,1024,1024,1024,9.4,0,67,4.014,4.016,4.013,4.016,0,0,6,GPS_Atti,
41.2904085479044,-72.9651106198373,122.94480085024,-0.328084,0,0.11291667028,1400,2016-09-26 18:27:13,9,16.059,123.27288485024,0,0,0.11291667028,9.8,0,0,1024,1024,1024,1024,9.5,0,67,4.014,4.016,4.013,4.016,0,0,6,GPS_Atti,
41.2904085482491,-72.9651106195736,122.94480085024,-0.328084,0,0.112779203084,1500,2016-09-26 18:27:13,9,16.059,123.27288485024,0,0,0.11291667028,9.9,0,0,1024,1024,1024,1024,9.5,0,67,4.014,4.016,4.013,4.016,0,0,6,GPS_Atti,
41.290408449339,-72.965110615908,122.94480085024,-0.328084,0,0.13863517504,1600,2016-09-26 18:27:14,9,16.059,123.27288485024,0,0,0.13863517504,9.9,0,0,1024,1024,1024,1024,9.5,0,67,4.014,4.016,4.013,4.016,0,0,6,GPS_Atti,
41.2904084525926,-72.9651106155242,122.94480085024,-0.328084,0,0.137627300992,1700,2016-09-26 18:27:14,9,16.059,123.27288485024,0,0,0.13863517504,9.9,0,0,1024,1024,1024,1024,9.5,0,67,4.014,4.016,4.013,4.016,0,0,6,GPS_Atti,
41.2904084553539,-72.9651107124752,122.61671685024,-0.656168,0,0.1545193619,1800,2016-09-26 18:27:14,9,16.059,123.27288485024,0,0,0.1545193619,9.9,0,0,1024,1024,1024,1024,9.5,0,67,4.014,4.016,4.013,4.016,0,0,6,GPS_Atti,
41.2904084510436,-72.9651107172834,122.61671685024,-0.656168,0,0.156562012884,1900,2016-09-26 18:27:14,9,16.059,123.27288485024,0,0,0.156562012884,9.9,0,0,1024,1024,1024,1024,9.5,0,67,4.014,4.016,4.013,4.016,0,0,6,GPS_Atti,
41.2904084522675,-72.9651107134709,122.61671685024,-0.656168,0,0.155504270068,2000,2016-09-26 18:27:14,9,16.058,123.27288485024,0,0,0.156562012884,10,0,0,1024,1024,1024,1024,9.5,0,67,4.014,4.016,4.012,4.016,0,0,11,AutoTakeoff,Return-to-Home Altitude:98FT
41.290408454801,-72.9651107118559,122.28863285024,-0.984252,0,0.154540031192,2100,2016-09-26 18:27:14,9,16.058,123.27288485024,0,0,0.156562012884,10,0,0,1024,1024,1024,1024,9.5,0,67,4.014,4.016,4.012,4.016,0,0,11,AutoTakeoff,Taking off
41.2904083612452,-72.9651107175472,122.28863285024,-0.984252,0,0.181102696084,2200,2016-09-26 18:27:14,9,16.058,123.27288485024,0,0,0.181102696084,10,0,0,1024,1024,1024,1024,9.5,0,67,4.014,4.016,4.012,4.016,0,0,11,AutoTakeoff,
41.2904083638562,-72.9651107166051,122.28863285024,-0.984252,0,0.180193903404,2300,2016-09-26 18:27:14,9,16.058,123.27288485024,0,0,0.181102696084,10,0,0,1024,1024,1024,1024,9.5,0,67,4.014,4.016,4.012,4.016,0,0,11,AutoTakeoff,
41.2904083668163,-72.9651107167238,122.28863285024,-0.984252,0,0.179366475556,2400,2016-09-26 18:27:14,9,16.058,123.27288485024,0,0,0.181102696084,10,0,0,1024,1024,1024,1024,9.5,0,67,4.014,4.016,4.012,4.016,0,0,11,AutoTakeoff,
41.2904083683065,-72.9651107095401,121.96054885024,-1.312336,0,0.177721134296,2500,2016-09-26 18:27:15,9,16.058,123.27288485024,0,0,0.181102696084,10,0,0,1024,1024,1024,1024,9.5,0,67,4.014,4.016,4.012,4.016,0,0,11,AutoTakeoff,
41.2904083533816,-72.9651107075577,121.96054885024,-1.312336,0,0.181716213164,2600,2016-09-26 18:27:15,9,16.058,123.27288485024,0,0,0.181716213164,9.9,0,0,1024,1024,1024,1024,9.5,0,67,4.014,4.016,4.012,4.016,0,0,11,AutoTakeoff,
41.2904083543137,-72.9651106982945,121.63246485024,-1.64042,0,0.179931436204,2700,2016-09-26 18:27:15,9,16.058,123.27288485024,0,0,0.181716213164,10,0,0,1024,1024,1024,1024,9.5,0,67,4.014,4.016,4.012,4.016,0,0,11,AutoTakeoff,
41.290408361443,-72.9651106975683,121.30438085024,-1.968504,0,0.177720806212,2800,2016-09-26 18:27:15,9,16.058,123.27288485024,0,0,0.181716213164,9.8,0,0,1024,1024,1024,1024,9.5,0,67,4.014,4.016,4.012,4.016,0,0,11,AutoTakeoff,
41.2904084664374,-72.9651108790534,120.32012885024,-2.952756,0.223694,0.187541344584,3000,2016-09-26 18:27:15,9,16.058,123.27288485024,0,0.223694,0.187541344584,9.2,0,0,1024,1024,1024,1024,9.5,0,67,4.014,4.016,4.012,4.016,0,0,11,AutoTakeoff,
41.2904085658711,-72.9651109821808,119.99204485024,-3.28084,0.3131716,0.196319232004,3100,2016-09-26 18:27:15,9,16.041,123.27288485024,0,0.3131716,0.196319232004,9.1,0,0,1024,1024,1024,1024,9.5,0,67,4.009,4.012,4.008,4.012,0,0,11,AutoTakeoff,
41.2904085761928,-72.9651110952305,119.99204485024,-3.28084,0.3131716,0.224545282776,3200,2016-09-26 18:27:15,9,16.041,123.27288485024,0,0.3131716,0.224545282776,9,0,0,1024,1024,1024,1024,9.5,0,67,4.009,4.012,4.008,4.012,0,0,11,AutoTakeoff,
41.2904086465543,-72.9651111884877,119.99204485024,-3.28084,0.3131716,0.243804469744,3300,2016-09-26 18:27:15,9,16.041,123.27288485024,0,0.3131716,0.243804469744,8.7,0,0,1024,1024,1024,1024,9.5,0,67,4.009,4.012,4.008,4.012,0,0,11,AutoTakeoff,
41.2904088491249,-72.9651114882016,120.32012885024,-2.952756,0.3131716,0.324843186248,3400,2016-09-26 18:27:15,9,16.041,123.27288485024,0,0.3131716,0.324843186248,8.5,0,0,1024,1024,1024,1024,9.5,0,67,4.009,4.012,4.008,4.012,0,0,11,AutoTakeoff,
41.2904089434183,-72.9651116264128,120.64821285024,-2.624672,0.3131716,0.3674868884,3500,2016-09-26 18:27:15,9,16.041,123.27288485024,0,0.3131716,0.3674868884,8.3,0,0,1024,1024,1024,1024,9.5,0,67,4.009,4.012,4.008,4.012,0,0,11,AutoTakeoff,
41.2904091262922,-72.9651119588552,120.97629685024,-2.296588,0.3131716,0.47210303348,3600,2016-09-26 18:27:16,9,16.041,123.27288485024,0,0.3131716,0.47210303348,8,0,0,1024,1024,1024,1024,9.5,0,67,4.009,4.012,4.008,4.012,0,0,11,AutoTakeoff,
41.2904093068943,-72.965112127415,120.97629685024,-2.296588,0.4921268,0.5376968676,3700,2016-09-26 18:27:16,9,16.041,123.27288485024,0,0.4921268,0.5376968676,7.7,0,0,1024,1024,1024,1024,9.4,0,67,4.009,4.012,4.008,4.012,0,0,11,AutoTakeoff,
41.2904091697154,-72.9651125032265,121.30438085024,-1.968504,0.3131716,0.62017390436,3800,2016-09-26 18:27:16,9,16.041,123.27288485024,0,0.4921268,0.62017390436,7.8,0,0,1024,1024,1024,1024,9.4,0,67,4.009,4.012,4.008,4.012,0,0,11,AutoTakeoff,
41.2904093137378,-72.9651126658763,121.63246485024,-1.64042,0.3131716,0.67748689832,3900,2016-09-26 18:27:16,9,16.041,123.27288485024,0,0.4921268,0.67748689832,8.3,0,0,1024,1024,1024,1024,9.3,0,67,4.009,4.012,4.008,4.012,0,0,11,AutoTakeoff,
41.2904095391608,-72.9651128851952,121.96054885024,-1.312336,0.3131716,0.76205383016,4000,2016-09-26 18:27:16,9,16.041,123.27288485024,0,0.4921268,0.76205383016,8.4,0,0,1024,1024,1024,1024,9.3,0,67,4.009,4.012,4.008,4.012,0,0,11,AutoTakeoff,
41.2904095021739,-72.9651131919349,122.28863285024,-0.984252,0.223694,0.83602692964,4100,2016-09-26 18:27:16,9,15.958,123.27288485024,0,0.4921268,0.83602692964,8.7,0,0,1024,1024,1024,1024,9.3,0,67,3.984,3.986,3.991,3.999,0,0,11,AutoTakeoff,
41.2904095766767,-72.9651133677588,122.61671685024,-0.656168,0.223694,0.89052496288,4200,2016-09-26 18:27:16,8,15.958,123.27288485024,0,0.4921268,0.89052496288,8.6,0,0,1024,1024,1024,1024,9.3,0,67,3.984,3.986,3.991,3.999,0,0,11,AutoTakeoff,
41.2904097055594,-72.9651134333606,122.94480085024,-0.328084,0.223694,0.92412732616,4300,2016-09-26 18:27:16,8,15.958,123.27288485024,0,0.4921268,0.92412732616,8.6,0,0,1024,1024,1024,1024,9.3,0,67,3.984,3.986,3.991,3.999,0,0,11,AutoTakeoff,
41.2904099702409,-72.9651137480266,123.27288485024,0,0.223694,1.04195541392,4500,2016-09-26 18:27:16,8,15.958,123.27288485024,0,0.4921268,1.04195541392,9.4,0,0,1024,1024,1024,1024,9.3,0,67,3.984,3.986,3.991,3.999,0,0,11,AutoTakeoff,
41.2904101030892,-72.9651138375308,123.60096885024,0.328084,0.223694,1.0853346804,4600,2016-09-26 18:27:17,8,15.958,123.60096885024,0.328084,0.4921268,1.0853346804,9.6,0,0,1024,1024,1024,1024,9.3,0,67,3.984,3.986,3.991,3.999,0,0,11,AutoTakeoff,
41.2904102224972,-72.9651140543313,123.92905285024,0.656168,0.223694,1.15813323916,4700,2016-09-26 18:27:17,8,15.958,123.92905285024,0.656168,0.4921268,1.15813323916,9.5,0,0,1024,1024,1024,1024,9.3,0,67,3.984,3.986,3.991,3.999,0,0,11,AutoTakeoff,
41.2904105887047,-72.9651139093567,124.25713685024,0.984252,0.223694,1.19267720352,4800,2016-09-26 18:27:17,9,15.958,124.25713685024,0.984252,0.4921268,1.19267720352,9.4,0,0,1024,1024,1024,1024,9.3,0,67,3.984,3.986,3.991,3.999,0,0,11,AutoTakeoff,
41.2904107219975,-72.9651138536005,124.58522085024,1.312336,0.223694,1.20834321452,4900,2016-09-26 18:27:17,9,15.958,124.58522085024,1.312336,0.4921268,1.20834321452,9.2,0,0,1024,1024,1024,1024,9.3,0,67,3.984,3.986,3.991,3.999,0,0,11,AutoTakeoff,
41.2904111773559,-72.9651139059553,124.58522085024,1.312336,0.223694,1.32460962244,5000,2016-09-26 18:27:17,9,15.958,124.58522085024,1.312336,0.4921268,1.32460962244,9.1,0,0,1024,1024,1024,1024,9.3,0,67,3.984,3.986,3.991,3.999,0,0,11,AutoTakeoff,
41.2904113506425,-72.9651138040166,124.91330485024,1.64042,0.223694,1.34765096176,5100,2016-09-26 18:27:17,9,15.958,124.91330485024,1.64042,0.4921268,1.34765096176,9.1,0,0,1024,1024,1024,1024,9.3,0,67,3.984,3.986,3.991,3.999,0,0,11,AutoTakeoff,
41.2904116447977,-72.9651136991588,125.24138885024,1.968504,0.447388,1.40604007124,5200,2016-09-26 18:27:17,9,15.873,125.24138885024,1.968504,0.4921268,1.40604007124,9,0,0,1024,1024,1024,1024,9.3,0,67,3.945,3.941,3.924,3.922,0,0,11,AutoTakeoff,
41.2904120674995,-72.965113695316,125.56947285024,2.296588,0.447388,1.52457025876,5300,2016-09-26 18:27:17,9,15.873,125.56947285024,2.296588,0.4921268,1.52457025876,9,0,0,1024,1024,1024,1024,9.3,0,67,3.945,3.941,3.924,3.922,0,0,11,AutoTakeoff,
41.2904124199592,-72.9651134912219,125.56947285024,2.296588,0.447388,1.5972605498,5400,2016-09-26 18:27:17,9,15.873,125.56947285024,2.296588,0.4921268,1.5972605498,8.9,0,0,1024,1024,1024,1024,9.3,0,67,3.945,3.941,3.924,3.922,0,0,11,AutoTakeoff,
41.290412596523,-72.9651133981448,125.89755685024,2.624672,0.223694,1.63827761148,5500,2016-09-26 18:27:17,9,15.873,125.89755685024,2.624672,0.4921268,1.63827761148,9.2,0,0,1024,1024,1024,1024,9.3,0,67,3.945,3.941,3.924,3.922,0,0,11,AutoTakeoff,
41.2904129013274,-72.9651131659996,126.22564085024,2.952756,0.223694,1.70428811228,5600,2016-09-26 18:27:18,9,15.873,126.22564085024,2.952756,0.4921268,1.70428811228,9,0,0,1024,1024,1024,1024,9.3,0,67,3.945,3.941,3.924,3.922,0,0,11,AutoTakeoff,
41.290413223576,-72.9651131190368,126.55372485024,3.28084,0.223694,1.80399612072,5700,2016-09-26 18:27:18,9,15.873,126.55372485024,3.28084,0.4921268,1.80399612072,8.6,0,0,1024,1024,1024,1024,9.2,0,67,3.945,3.941,3.924,3.922,0,0,11,AutoTakeoff,
41.290413511144,-72.9651130431953,126.55372485024,3.28084,0.223694,1.89107289516,5800,2016-09-26 18:27:18,9,15.873,126.55372485024,3.28084,0.4921268,1.89107289516,8.9,0,0,1024,1024,1024,1024,9.3,0,67,3.945,3.941,3.924,3.922,0,0,11,AutoTakeoff,
41.2904136370863,-72.965112941447,126.88180885024,3.608924,0.223694,1.92271331612,5900,2016-09-26 18:27:18,9,15.873,126.88180885024,3.608924,0.4921268,1.92271331612,9.1,0,0,1024,1024,1024,1024,9.2,0,67,3.945,3.941,3.924,3.922,0,0,11,AutoTakeoff,
41.2904140748887,-72.9651125870385,127.20989285024,3.937008,0.3131716,2.03985242748,6000,2016-09-26 18:27:18,9,15.873,127.20989285024,3.937008,0.4921268,2.03985242748,8.8,0,0,1024,1024,1024,1024,9.2,0,67,3.945,3.941,3.924,3.922,0,0,11,AutoTakeoff,
41.2904141740461,-72.9651124338461,127.53797685024,4.265092,0.223694,2.06207683764,6100,2016-09-26 18:27:18,9,15.873,127.53797685024,4.265092,0.4921268,2.06207683764,9,0,0,1024,1024,1024,1024,9.2,0,67,3.945,3.941,3.924,3.922,0,0,11,AutoTakeoff,
41.2904141108274,-72.9651122040281,127.53797685024,4.265092,0.223694,2.022883923,6200,2016-09-26 18:27:18,9,15.486,127.53797685024,4.265092,0.4921268,2.06207683764,9,0,0,1024,1024,1024,1024,9.2,0,67,3.867,3.867,3.862,3.875,0,0,11,AutoTakeoff,
41.2904143483719,-72.9651115083058,128.19414485024,4.92126,0.447388,2.0680446856,6400,2016-09-26 18:27:18,9,15.486,128.19414485024,4.92126,0.4921268,2.0680446856,8.7,0,0,1024,1024,1024,1024,9.2,0,67,3.867,3.867,3.862,3.875,0,0,11,AutoTakeoff,
41.290414356487,-72.9651112746666,128.19414485024,4.92126,0.223694,2.06178156204,6500,2016-09-26 18:27:18,9,15.486,128.19414485024,4.92126,0.4921268,2.0680446856,8.6,0,0,1024,1024,1024,1024,9.2,0,67,3.867,3.867,3.862,3.875,0,0,11,AutoTakeoff,
41.2904146526466,-72.9651106611479,128.52222885024,5.249344,0.447388,2.15496397972,6600,2016-09-26 18:27:19,9,15.486,128.52222885024,5.249344,0.4921268,2.15496397972,8.6,0,0,1024,1024,1024,1024,9.2,0,67,3.867,3.867,3.862,3.875,0,0,11,AutoTakeoff,
41.2904146644035,-72.9651104311053,128.85031285024,5.577428,0.223694,2.15735899292,6700,2016-09-26 18:27:19,9,15.486,128.85031285024,5.577428,0.4921268,2.15735899292,9.1,0,0,1024,1024,1024,1024,9.2,0,67,3.867,3.867,3.862,3.875,0,0,11,AutoTakeoff,
41.2904147025109,-72.9651100972613,128.85031285024,5.577428,0.223694,2.17179468892,6800,2016-09-26 18:27:19,9,15.486,128.85031285024,5.577428,0.4921268,2.17179468892,9.3,0,0,1024,1024,1024,1024,9.2,0,67,3.867,3.867,3.862,3.875,0,0,11,AutoTakeoff,
41.2904148835393,-72.9651096766641,128.85031285024,5.577428,0.223694,2.24378944188,6900,2016-09-26 18:27:19,9,15.486,128.85031285024,5.577428,0.4921268,2.24378944188,9.5,0,0,1024,1024,1024,1024,9.2,0,67,3.867,3.867,3.862,3.875,0,0,11,AutoTakeoff,
41.2904148380195,-72.9651092230731,129.17839685024,5.905512,0.223694,2.24036424492,7000,2016-09-26 18:27:19,9,15.486,129.17839685024,5.905512,0.4921268,2.24378944188,9.9,0,0,1024,1024,1024,1024,9.2,0,67,3.867,3.867,3.862,3.875,0,0,11,AutoTakeoff,
41.2904148054354,-72.9651090759139,129.50648085024,6.233596,0.223694,2.234334061,7100,2016-09-26 18:27:19,9,15.486,129.50648085024,6.233596,0.4921268,2.24378944188,9.9,0,0,1024,1024,1024,1024,9.2,0,67,3.867,3.867,3.862,3.875,0,0,11,AutoTakeoff,
41.2904146686793,-72.9651085926168,129.50648085024,6.233596,0.223694,2.20942592372,7200,2016-09-26 18:27:19,9,15.486,129.50648085024,6.233596,0.4921268,2.24378944188,10,0,0,1024,1024,1024,1024,9.2,0,67,3.867,3.867,3.862,3.875,0,0,11,AutoTakeoff,
41.2904145819843,-72.9651084780869,129.50648085024,6.233596,0,2.18553484684,7300,2016-09-26 18:27:19,9,15.413,129.50648085024,6.233596,0.4921268,2.24378944188,10.1,0,0,1024,1024,1024,1024,9.3,0,67,3.87,3.866,3.842,3.835,0,0,11,AutoTakeoff,
41.2904144347031,-72.9651081366466,129.83456485024,6.56168,0.3131716,2.15723104016,7400,2016-09-26 18:27:19,9,15.413,129.83456485024,6.56168,0.4921268,2.24378944188,10,0,0,1024,1024,1024,1024,9.3,0,67,3.87,3.866,3.842,3.835,0,0,11,AutoTakeoff,
41.2904142619989,-72.9651077363855,130.16264885024,6.889764,0.223694,2.13052500256,7500,2016-09-26 18:27:20,9,15.413,130.16264885024,6.889764,0.4921268,2.24378944188,10.1,0,0,1024,1024,1024,1024,9.3,0,67,3.87,3.866,3.842,3.835,0,0,11,AutoTakeoff,
41.2904140995847,-72.9651076157304,130.16264885024,6.889764,0.223694,2.0861877308,7600,2016-09-26 18:27:20,9,15.413,130.16264885024,6.889764,0.4921268,2.24378944188,10.2,0,0,1024,1024,1024,1024,9.3,0,67,3.87,3.866,3.842,3.835,0,0,11,AutoTakeoff,
41.2904139690127,-72.9651075456481,130.49073285024,7.217848,0.223694,2.04873366136,7700,2016-09-26 18:27:20,9,15.413,130.49073285024,7.217848,0.4921268,2.24378944188,10.4,0,0,1024,1024,1024,1024,9.4,0,67,3.87,3.866,3.842,3.835,0,0,6,GPS_Atti,
41.2904136190213,-72.9651069940722,130.49073285024,7.217848,0.3131716,1.99488851528,7800,2016-09-26 18:27:20,9,15.413,130.49073285024,7.217848,0.4921268,2.24378944188,10.7,0,0,1024,1024,1024,1024,9.4,0,67,3.87,3.866,3.842,3.835,0,0,6,GPS_Atti,
41.2904131823305,-72.965106893134,130.81881685024,7.545932,0.3131716,1.8682087212,8000,2016-09-26 18:27:20,9,15.413,130.81881685024,7.545932,0.4921268,2.24378944188,10,0,0,1024,1024,1024,1024,9.4,0,67,3.87,3.866,3.842,3.835,0,0,6,GPS_Atti,
41.2904128835454,-72.9651065177899,130.81881685024,7.545932,0.3131716,1.8311352292,8100,2016-09-26 18:27:20,9,15.413,130.81881685024,7.545932,0.4921268,2.24378944188,9.5,0,0,1024,1024,1024,1024,9.4,0,67,3.87,3.866,3.842,3.835,0,0,6,GPS_Atti,
41.2904127794953,-72.9651063457877,131.14690085024,7.874016,0.3131716,1.82765425796,8200,2016-09-26 18:27:20,9,15.413,131.14690085024,7.874016,0.4921268,2.24378944188,9.1,0,0,1024,1024,1024,1024,9.4,0,67,3.87,3.866,3.842,3.835,0,0,6,GPS_Atti,
41.2904126926561,-72.9651062238488,131.14690085024,7.874016,0,1.82263457276,8300,2016-09-26 18:27:20,9,15.413,131.14690085024,7.874016,0.4921268,2.24378944188,9.2,0,0,1024,1024,1024,1024,9.4,0,67,3.87,3.866,3.842,3.835,0,0,6,GPS_Atti,
41.2904121963965,-72.9651062477032,131.14690085024,7.874016,0.223694,1.6791503162,8400,2016-09-26 18:27:20,9,15.415,131.14690085024,7.874016,0.4921268,2.24378944188,9.2,0,0,1024,1024,1024,1024,9.4,0,67,3.846,3.86,3.849,3.859,0,0,6,GPS_Atti,
41.2904120888323,-72.9651062309373,131.14690085024,7.874016,0.223694,1.65309060408,8500,2016-09-26 18:27:20,9,15.415,131.14690085024,7.874016,0.4921268,2.24378944188,9.6,0,0,1024,1024,1024,1024,9.4,0,67,3.846,3.86,3.849,3.859,0,0,6,GPS_Atti,
41.2904119872711,-72.9651063428012,131.14690085024,7.874016,0.223694,1.60505582564,8600,2016-09-26 18:27:21,9,15.415,131.14690085024,7.874016,0.4921268,2.24378944188,9.3,0,0,1024,1024,1024,1024,9.4,0,67,3.846,3.86,3.849,3.859,0,0,6,GPS_Atti,
41.29041186162,-72.9651064848645,131.47498485024,8.2021,0.3131716,1.54495411768,8700,2016-09-26 18:27:21,9,15.415,131.47498485024,8.2021,0.4921268,2.24378944188,9.4,0,0,1024,1024,1024,1024,9.4,0,67,3.846,3.86,3.849,3.859,0,0,6,GPS_Atti,
41.2904114501884,-72.9651070985399,131.47498485024,8.2021,0.4921268,1.32070870368,8800,2016-09-26 18:27:21,9,15.415,131.47498485024,8.2021,0.4921268,2.24378944188,9.4,0,0,1024,1024,1024,1024,9.4,0,67,3.846,3.86,3.849,3.859,0,0,6,GPS_Atti,
41.2904113123117,-72.9651073846289,131.47498485024,8.2021,0.4921268,1.23118114176,8900,2016-09-26 18:27:21,9,15.415,131.47498485024,8.2021,0.4921268,2.24378944188,9.5,0,0,1024,1024,1024,1024,9.4,0,67,3.846,3.86,3.849,3.859,0,0,6,GPS_Atti,
41.290411006246,-72.9651077484205,131.47498485024,8.2021,0.4921268,1.08149281676,9000,2016-09-26 18:27:21,9,15.415,131.47498485024,8.2021,0.4921268,2.24378944188,9,0,0,1024,1024,1024,1024,9.4,0,67,3.846,3.86,3.849,3.859,0,0,6,GPS_Atti,
41.2904106744551,-72.9651081591412,131.80306885024,8.530184,0.4921268,0.91634517368,9100,2016-09-26 18:27:21,9,15.415,131.80306885024,8.530184,0.4921268,2.24378944188,9.3,0,0,1024,1024,1024,1024,9.4,0,67,3.846,3.86,3.849,3.859,0,0,6,GPS_Atti,
41.2904104182368,-72.9651085905098,131.80306885024,8.530184,0.4921268,0.7692913632,9200,2016-09-26 18:27:21,9,15.415,131.80306885024,8.530184,0.4921268,2.24378944188,8.9,0,0,1024,1024,1024,1024,9.4,0,67,3.846,3.86,3.849,3.859,0,0,6,GPS_Atti,
41.2904102604956,-72.9651088623081,131.80306885024,8.530184,0.4921268,0.67856301384,9300,2016-09-26 18:27:21,9,15.415,131.80306885024,8.530184,0.4921268,2.24378944188,8.6,0,0,1024,1024,1024,1024,9.4,0,67,3.846,3.86,3.849,3.859,0,0,6,GPS_Atti,
41.2904097312457,-72.9651092671759,131.80306885024,8.530184,0.4921268,0.45760172068,9400,2016-09-26 18:27:21,9,15.392,131.80306885024,8.530184,0.4921268,2.24378944188,8.2,0,0,1024,1024,1024,1024,9.4,0,67,3.855,3.847,3.834,3.856,0,0,6,GPS_Atti,
41.2904095231217,-72.9651099970465,132.13115285024,8.858268,0.4921268,0.294126977916,9600,2016-09-26 18:27:22,9,15.392,132.13115285024,8.858268,0.4921268,2.24378944188,8.2,0,0,1024,1024,1024,1024,9.4,0,67,3.855,3.847,3.834,3.856,0,0,6,GPS_Atti,
41.2904092070704,-72.9651104357308,132.13115285024,8.858268,0.4921268,0.16952428364,9700,2016-09-26 18:27:22,9,15.392,132.13115285024,8.858268,0.4921268,2.24378944188,8.7,0,0,1024,1024,1024,1024,9.3,0,67,3.855,3.847,3.834,3.856,0,0,6,GPS_Atti,
41.2904091102051,-72.9651109264925,132.13115285024,8.858268,0.447388,0.21355643728,9800,2016-09-26 18:27:22,9,15.392,132.13115285024,8.858268,0.4921268,2.24378944188,9.1,0,0,1024,1024,1024,1024,9.3,0,67,3.855,3.847,3.834,3.856,0,0,6,GPS_Atti,
41.2904090408768,-72.9651111989271,132.45923685024,9.186352,0.447388,0.265416347076,9900,2016-09-26 18:27:22,9,15.392,132.45923685024,9.186352,0.4921268,2.24378944188,9.1,0,0,1024,1024,1024,1024,9.3,0,67,3.855,3.847,3.834,3.856,0,0,6,GPS_Atti,
41.2904089086977,-72.9651117838357,132.45923685024,9.186352,0.447388,0.407972454,10000,2016-09-26 18:27:22,9,15.392,132.45923685024,9.186352,0.4921268,2.24378944188,9,0,0,1024,1024,1024,1024,9.3,0,67,3.855,3.847,3.834,3.856,0,0,6,GPS_Atti,
41.2904088839228,-72.9651120463737,132.45923685024,9.186352,0.447388,0.47834975284,10100,2016-09-26 18:27:22,9,15.392,132.45923685024,9.186352,0.4921268,2.24378944188,9.2,0,0,1024,1024,1024,1024,9.3,0,67,3.855,3.847,3.834,3.856,0,0,6,GPS_Atti,
41.290408894267,-72.9651125360956,132.45923685024,9.186352,0.447388,0.61237862852,10200,2016-09-26 18:27:22,9,15.392,132.45923685024,9.186352,0.4921268,2.24378944188,8.8,0,0,1024,1024,1024,1024,9.3,0,67,3.855,3.847,3.834,3.856,0,0,6,GPS_Atti,
41.2904088137685,-72.9651130366051,132.45923685024,9.186352,0.447388,0.74772312104,10300,2016-09-26 18:27:22,9,15.392,132.45923685024,9.186352,0.4921268,2.24378944188,8.6,0,0,1024,1024,1024,1024,9.3,0,67,3.855,3.847,3.834,3.856,0,0,6,GPS_Atti,
41.2904088572203,-72.9651135790355,132.45923685024,9.186352,0.447388,0.89690619668,10400,2016-09-26 18:27:22,9,15.392,132.45923685024,9.186352,0.4921268,2.24378944188,8.5,0,0,1024,1024,1143,1024,9.3,0,67,3.855,3.847,3.834,3.856,0,0,6,GPS_Atti,
41.2904088729754,-72.9651138265655,132.45923685024,9.186352,0.223694,0.96495081828,10500,2016-09-26 18:27:22,9,15.331,132.45923685024,9.186352,0.4921268,2.24378944188,8.7,0,0,1024,1024,1348,1024,9.3,0,67,3.86,3.855,3.81,3.809,0,0,6,GPS_Atti,
41.2904089177338,-72.9651144963075,132.45923685024,9.186352,0.223694,1.14913717588,10600,2016-09-26 18:27:23,9,15.331,132.45923685024,9.186352,0.4921268,2.24378944188,9,0,0,1024,1024,1376,1024,9.3,0,67,3.86,3.855,3.81,3.809,0,0,6,GPS_Atti,
41.2904089613959,-72.9651146742121,132.13115285024,8.858268,0.223694,1.19875003836,10700,2016-09-26 18:27:23,9,15.331,132.45923685024,9.186352,0.4921268,2.24378944188,8.6,0,0,1024,1024,1303,1024,9.2,0,67,3.86,3.855,3.81,3.809,0,0,6,GPS_Atti,
41.2904090860512,-72.965115089658,132.45923685024,9.186352,0.223694,1.31585962216,10800,2016-09-26 18:27:23,9,15.331,132.45923685024,9.186352,0.4921268,2.24378944188,8,0,0,1024,1024,1316,1024,9.2,0,67,3.86,3.855,3.81,3.809,0,0,6,GPS_Atti,
41.2904091698182,-72.9651155873641,132.78732085024,9.514436,0,1.45465227752,10900,2016-09-26 18:27:23,9,15.331,132.78732085024,9.514436,0.4921268,2.24378944188,7.9,0,0,1024,1024,1333,1024,9.2,0,67,3.86,3.855,3.81,3.809,0,0,6,GPS_Atti,
41.2904094685367,-72.9651158857459,133.11540485024,9.84252,0.3131716,1.55063653256,11000,2016-09-26 18:27:23,9,15.331,133.11540485024,9.84252,0.4921268,2.24378944188,8.2,0,0,1024,1024,1316,1024,9.2,0,67,3.86,3.855,3.81,3.809,0,0,6,GPS_Atti,
41.2904099345401,-72.9651164328932,134.09965685024,10.826772,0.223694,1.73299546228,11200,2016-09-26 18:27:23,9,15.331,134.09965685024,10.826772,0.4921268,2.24378944188,8.4,0,0,1024,1024,1346,1024,9.2,0,67,3.86,3.855,3.81,3.809,0,0,6,GPS_Atti,
41.2904101107339,-72.9651164679531,134.42774085024,11.154856,0.223694,1.75932748412,11300,2016-09-26 18:27:23,9,15.331,134.42774085024,11.154856,0.4921268,2.24378944188,8.5,0,0,1024,1024,1218,1024,9.2,0,67,3.86,3.855,3.81,3.809,0,0,6,GPS_Atti,
41.2904106016766,-72.9651165041186,135.08390885024,11.811024,0.447388,1.82714572776,11400,2016-09-26 18:27:23,9,15.331,135.08390885024,11.811024,0.4921268,2.24378944188,9.3,0,0,1024,1024,1108,1024,9.1,0,67,3.86,3.855,3.81,3.809,0,0,6,GPS_Atti,
41.2904111555544,-72.9651166781694,135.74007685024,12.467192,0.447388,1.95354993128,11500,2016-09-26 18:27:23,9,15.331,135.74007685024,12.467192,0.4921268,2.24378944188,9.9,0,0,1024,1024,1280,1024,9.1,0,67,3.86,3.855,3.81,3.809,0,0,6,GPS_Atti,
41.2904116582173,-72.9651165347387,136.06816085024,12.795276,0.447388,2.00895347636,11600,2016-09-26 18:27:24,9,15.333,136.06816085024,12.795276,0.4921268,2.24378944188,10.3,0,0,1024,1024,1486,1024,9.1,0,67,3.807,3.85,3.846,3.829,0,0,6,GPS_Atti,
41.2904118411365,-72.9651164967531,136.39624485024,13.12336,0.223694,2.03628287356,11700,2016-09-26 18:27:24,9,15.333,136.39624485024,13.12336,0.4921268,2.24378944188,10.3,0,0,1024,1024,1517,1024,9.1,0,67,3.807,3.85,3.846,3.829,0,0,6,GPS_Atti,
41.2904118888521,-72.9651164444618,136.72432885024,13.451444,0,2.03410111496,11800,2016-09-26 18:27:24,9,15.333,136.72432885024,13.451444,0.4921268,2.24378944188,10.2,0,0,1024,1024,1325,1024,9.1,0,67,3.807,3.85,3.846,3.829,0,0,6,GPS_Atti,
41.2904122665944,-72.9651164587784,137.05241285024,13.779528,0,2.11783799428,11900,2016-09-26 18:27:24,9,15.333,137.05241285024,13.779528,0.4921268,2.24378944188,9.6,0,0,1024,1024,1279,1024,9.1,0,67,3.807,3.85,3.846,3.829,0,0,6,GPS_Atti,
41.290412203091,-72.9651163673485,137.70858085024,14.435696,0.223694,2.08386489608,12000,2016-09-26 18:27:24,9,15.333,137.70858085024,14.435696,0.4921268,2.24378944188,9.4,0,0,1024,1024,1351,1024,9.1,0,67,3.807,3.85,3.846,3.829,0,0,6,GPS_Atti,
41.2904121896855,-72.9651155898276,138.69283285024,15.419948,0.4921268,1.91514441824,12200,2016-09-26 18:27:24,9,15.333,138.69283285024,15.419948,0.4921268,2.24378944188,9.9,0,0,1024,1024,1379,1024,9.1,0,67,3.807,3.85,3.846,3.829,0,0,6,GPS_Atti,
41.2904118929785,-72.9651143637837,139.67708485024,16.4042,0.7158208,1.59624677024,12400,2016-09-26 18:27:24,9,15.333,139.67708485024,16.4042,0.7158208,2.24378944188,9.8,0,0,1024,1024,1439,1024,9.1,0,67,3.807,3.85,3.846,3.829,0,0,6,GPS_Atti,
41.2904119788848,-72.965113675019,140.33325285024,17.060368,0.7158208,1.49560700324,12500,2016-09-26 18:27:25,9,15.333,140.33325285024,17.060368,0.7158208,2.24378944188,9.3,0,0,1024,1024,1442,1024,9.1,0,67,3.807,3.85,3.846,3.829,0,0,6,GPS_Atti,
41.2904117828197,-72.9651126955318,141.31750485024,18.04462,0.9171454,1.2846293062,12600,2016-09-26 18:27:25,9,15.333,141.31750485024,18.04462,0.9171454,2.24378944188,9.1,0,0,1024,1024,1464,1024,9.2,0,67,3.807,3.85,3.846,3.829,0,0,6,GPS_Atti,
41.2904116150573,-72.9651121917854,141.97367285024,18.700788,0.8052984,1.16495738636,12700,2016-09-26 18:27:25,9,15.333,141.97367285024,18.700788,0.9171454,2.24378944188,8.6,0,0,1024,1024,1468,1024,9.1,0,67,3.807,3.85,3.846,3.829,0,0,6,GPS_Atti,
41.2904118118758,-72.9651111524544,142.62984085024,19.356956,0.7158208,1.13998363228,12800,2016-09-26 18:27:25,9,15.111,142.62984085024,19.356956,0.9171454,2.24378944188,8.2,0,0,1024,1024,1488,1024,9.2,0,67,3.791,3.813,3.817,3.814,0,0,6,GPS_Atti,
41.2904114194271,-72.9651100030176,144.59834485024,21.32546,0.4921268,0.97681761656,13000,2016-09-26 18:27:25,9,15.111,144.59834485024,21.32546,0.9171454,2.24378944188,8.4,0,0,1024,1024,1514,1024,9.2,0,67,3.791,3.813,3.817,3.814,0,0,6,GPS_Atti,
41.2904114194271,-72.9651100030176,144.59834485024,21.32546,0.4921268,0.97681761656,13000,2016-09-26 18:27:25,9,15.111,144.59834485024,21.32546,0.9171454,2.24378944188,8.4,0,0,1024,1024,1514,1024,9.1,0,67,3.791,3.813,3.817,3.814,0,0,6,GPS_Atti,
41.2904114873501,-72.9651093890205,145.58259685024,22.309712,0.4921268,1.02942260512,13100,2016-09-26 18:27:25,9,15.111,145.58259685024,22.309712,0.9171454,2.24378944188,8.7,0,0,1024,1024,1508,1015,9.1,0,67,3.791,3.813,3.817,3.814,0,0,6,GPS_Atti,
41.2904107409357,-72.9651087648319,147.22301685024,23.950132,0.4921268,0.84025921324,13300,2016-09-26 18:27:25,9,15.111,147.22301685024,23.950132,0.9171454,2.24378944188,9,0,0,1024,951,1507,1002,9.2,0,67,3.791,3.813,3.817,3.814,0,0,6,GPS_Atti,
41.2904100671039,-72.9651077863636,149.51960485024,26.24672,0.3131716,0.8419783734,13500,2016-09-26 18:27:25,9,15.111,149.51960485024,26.24672,0.9171454,2.24378944188,8.5,0,0,1024,1024,1511,1021,9.2,0,67,3.791,3.813,3.817,3.814,0,0,6,GPS_Atti,
41.2904094123964,-72.965107396479,150.17577285024,26.902888,0.4921268,0.83433073536,13600,2016-09-26 18:27:26,9,15.111,150.17577285024,26.902888,0.9171454,2.24378944188,8.3,0,0,1024,1024,1508,1024,9.1,0,67,3.791,3.813,3.817,3.814,0,0,6,GPS_Atti,
41.2904090853805,-72.9651066624323,151.16002485024,27.88714,0.4921268,1.00738848368,13700,2016-09-26 18:27:26,9,15.111,151.16002485024,27.88714,0.9171454,2.24378944188,8.2,0,0,1024,1024,1515,1024,9.1,0,67,3.791,3.813,3.817,3.814,0,0,6,GPS_Atti,
41.2904085179403,-72.9651063780963,152.47236085024,29.199476,0.4921268,1.0813484598,13800,2016-09-26 18:27:26,9,15.111,152.47236085024,29.199476,0.9171454,2.24378944188,8.1,0,0,1024,1024,1575,1024,9.1,0,67,3.791,3.813,3.817,3.814,0,0,6,GPS_Atti,
41.2904083908424,-72.9651060490053,153.45661285024,30.183728,0.4921268,1.17559715048,13900,2016-09-26 18:27:26,9,15.111,153.45661285024,30.183728,0.9171454,2.24378944188,8.5,0,0,1024,1024,1580,1024,9.1,0,67,3.791,3.813,3.817,3.814,0,0,6,GPS_Atti,
41.2904075823975,-72.9651055591152,154.44086485024,31.16798,0.4921268,1.37061684176,14000,2016-09-26 18:27:26,9,15.111,154.44086485024,31.16798,0.9171454,2.24378944188,8.4,0,0,1024,1024,1596,1024,9.1,0,67,3.791,3.813,3.817,3.814,0,0,6,GPS_Atti,
41.2904074857481,-72.9651052584966,155.42511685024,32.152232,0.447388,1.45993114908,14100,2016-09-26 18:27:26,9,15.111,155.42511685024,32.152232,0.9171454,2.24378944188,8.3,0,0,1024,1024,1628,1024,9.1,0,67,3.791,3.813,3.817,3.814,0,0,6,GPS_Atti,
41.2904072547294,-72.965105274547,156.40936885024,33.136484,0.223694,1.484662121,14200,2016-09-26 18:27:26,9,15.111,156.40936885024,33.136484,0.9171454,2.24378944188,8.3,0,0,1024,1024,1646,1024,9.1,0,67,3.791,3.813,3.817,3.814,0,0,6,GPS_Atti,
41.2904068788966,-72.9651052793602,157.72170485024,34.44882,0.223694,1.5392224902,14300,2016-09-26 18:27:26,9,15.111,157.72170485024,34.44882,0.9171454,2.24378944188,8.1,0,0,1024,1024,1668,1024,9.1,0,67,3.791,3.813,3.817,3.814,0,0,6,GPS_Atti,
41.2904068870785,-72.9651054582973,159.03404085024,35.761156,0.223694,1.49406500844,14400,2016-09-26 18:27:26,9,15.111,159.03404085024,35.761156,0.9171454,2.24378944188,8.2,0,0,1024,1024,1654,1024,9.1,0,67,3.791,3.813,3.817,3.814,0,0,6,GPS_Atti,
41.2904070352552,-72.9651054748323,160.67446085024,37.401576,0.447388,1.46613193668,14500,2016-09-26 18:27:27,9,15.111,160.67446085024,37.401576,0.9171454,2.24378944188,8.3,0,0,1024,1024,1588,1024,9,0,67,3.791,3.813,3.817,3.814,0,0,6,GPS_Atti,
41.2904069835349,-72.9651061232898,162.31488085024,39.041996,0.447388,1.31675529148,14600,2016-09-26 18:27:27,9,15.111,162.31488085024,39.041996,0.9171454,2.24378944188,8.3,0,0,1024,1024,1572,1024,9,0,67,3.791,3.813,3.817,3.814,0,0,6,GPS_Atti,
41.2904072381834,-72.9651068098116,165.26763685024,41.994752,0.4921268,1.10722772572,14800,2016-09-26 18:27:27,10,15.111,165.26763685024,41.994752,0.9171454,2.24378944188,9.2,0,0,1024,1024,1566,1024,9,0,67,3.791,3.813,3.817,3.814,0,0,6,GPS_Atti,
41.2904075074658,-72.9651069341467,166.57997285024,43.307088,0.671082,1.03093179152,14900,2016-09-26 18:27:27,10,15.111,166.57997285024,43.307088,0.9171454,2.24378944188,9.1,0,0,1024,1024,1601,1024,9,0,67,3.791,3.813,3.817,3.814,0,0,6,GPS_Atti,
41.2904078045664,-72.9651078424685,169.20464485024,45.93176,0.7158208,0.75973755712,15100,2016-09-26 18:27:27,10,15.111,169.20464485024,45.93176,0.9171454,2.24378944188,8.7,0,0,1024,1024,1608,1024,9,0,67,3.791,3.813,3.817,3.814,0,0,6,GPS_Atti,
41.2904080702429,-72.9651085529185,170.84506485024,47.57218,0.7158208,0.54220474176,15200,2016-09-26 18:27:27,10,15.009,170.84506485024,47.57218,0.9171454,2.24378944188,8.3,0,0,1024,1024,1624,1024,9,0,67,3.739,3.747,3.736,3.747,0,0,6,GPS_Atti,
41.2904081928795,-72.9651091263092,172.15740085024,48.884516,0.7158208,0.38337599652,15300,2016-09-26 18:27:27,10,15.009,172.15740085024,48.884516,0.9171454,2.24378944188,8.4,0,0,1024,1024,1633,1024,9,0,67,3.739,3.747,3.736,3.747,0,0,6,GPS_Atti,
41.2904085069706,-72.9651097154503,173.46973685024,50.196852,0.7158208,0.18598425792,15400,2016-09-26 18:27:27,10,15.009,173.46973685024,50.196852,0.9171454,2.24378944188,8.4,0,0,1024,1024,1631,1024,9,0,67,3.739,3.747,3.736,3.747,0,0,6,GPS_Atti,
41.2904087809558,-72.9651098677427,175.11015685024,51.837272,0.671082,0.121778547204,15500,2016-09-26 18:27:27,10,15.009,175.11015685024,51.837272,0.9171454,2.24378944188,8.5,0,0,1024,1024,1612,1024,9,0,67,3.739,3.747,3.736,3.747,0,0,6,GPS_Atti,
41.2904090438014,-72.9651108191807,176.42249285024,53.149608,0.671082,0.175467853384,15600,2016-09-26 18:27:28,10,15.009,176.42249285024,53.149608,0.9171454,2.24378944188,8.5,0,0,1024,1024,1576,1024,9,0,67,3.739,3.747,3.736,3.747,0,0,6,GPS_Atti,
41.2904093240872,-72.9651108928311,178.06291285024,54.790028,0.671082,0.26278380106,15700,2016-09-26 18:27:28,10,15.009,178.06291285024,54.790028,0.9171454,2.24378944188,8.3,0,0,1024,1024,1551,1024,9,0,67,3.739,3.747,3.736,3.747,0,0,6,GPS_Atti,
41.2904097247095,-72.9651111078416,179.70333285024,56.430448,0.671082,0.41680775612,15800,2016-09-26 18:27:28,10,15.009,179.70333285024,56.430448,0.9171454,2.24378944188,7.9,0,0,1024,1024,1549,1024,9,0,67,3.739,3.747,3.736,3.747,0,0,6,GPS_Atti,
41.2904100693641,-72.9651115694291,181.01566885024,57.742784,0.671082,0.59171917904,15900,2016-09-26 18:27:28,10,15.009,181.01566885024,57.742784,0.9171454,2.24378944188,8.1,0,0,1024,1024,1470,1024,8.9,0,67,3.739,3.747,3.736,3.747,0,0,6,GPS_Atti,
41.2904106067922,-72.9651116540625,182.32800485024,59.05512,0.671082,0.77045934224,16000,2016-09-26 18:27:28,10,15.009,182.32800485024,59.05512,0.9171454,2.24378944188,8.4,0,0,1024,1024,1342,1024,8.9,0,67,3.739,3.747,3.736,3.747,0,0,6,GPS_Atti,
41.2904108843501,-72.9651115721459,183.31225685024,60.039372,0.447388,0.8513943842,16100,2016-09-26 18:27:28,10,15.009,183.31225685024,60.039372,0.9171454,2.24378944188,8.9,0,0,1024,1024,1294,1024,8.9,0,67,3.739,3.747,3.736,3.747,0,0,6,GPS_Atti,
41.2904115368361,-72.9651118806468,184.62459285024,61.351708,0.7158208,1.10345147888,16200,2016-09-26 18:27:28,10,15.03,184.62459285024,61.351708,0.9171454,2.24378944188,9,0,0,1024,1024,1312,1024,8.9,0,67,3.729,3.748,3.738,3.725,0,0,6,GPS_Atti,
41.2904117936516,-72.9651117138709,185.60884485024,62.33596,0.4921268,1.17452759664,16300,2016-09-26 18:27:28,10,15.03,185.60884485024,62.33596,0.9171454,2.24378944188,9.1,0,0,1024,1024,1292,1024,8.9,0,67,3.729,3.748,3.738,3.725,0,0,6,GPS_Atti,
41.2904127857567,-72.9651114981177,187.57734885024,64.304464,0.4921268,1.50727695112,16500,2016-09-26 18:27:28,10,15.03,187.57734885024,64.304464,0.9171454,2.24378944188,9,0,0,1024,1024,1096,1024,8.9,0,67,3.729,3.748,3.738,3.725,0,0,6,GPS_Atti,
41.2904131881246,-72.9651112566741,188.23351685024,64.960632,0.3131716,1.63914703408,16600,2016-09-26 18:27:29,10,15.03,188.23351685024,64.960632,0.9171454,2.24378944188,9,0,0,1024,1024,1087,1024,8.9,0,67,3.729,3.748,3.738,3.725,0,0,6,GPS_Atti,
41.2904133277242,-72.9651110127069,188.88968485024,65.6168,0.4921268,1.68048561808,16700,2016-09-26 18:27:29,10,15.03,188.88968485024,65.6168,0.9171454,2.24378944188,8.8,0,0,1024,1024,1132,1024,8.9,0,67,3.729,3.748,3.738,3.725,0,0,6,GPS_Atti,
41.2904139116249,-72.9651109151165,189.54585285024,66.272968,0.223694,1.88974087412,16800,2016-09-26 18:27:29,10,15.03,189.54585285024,66.272968,0.9171454,2.24378944188,8.7,0,0,1024,1024,1213,1024,8.9,0,67,3.729,3.748,3.738,3.725,0,0,6,GPS_Atti,
41.2904139651621,-72.9651106883669,190.20202085024,66.929136,0.223694,1.90480977224,16900,2016-09-26 18:27:29,10,15.03,190.20202085024,66.929136,0.9171454,2.24378944188,8.4,0,0,1024,1024,1181,1024,8.9,0,67,3.729,3.748,3.738,3.725,0,0,6,GPS_Atti,
41.2904141835683,-72.9651104256524,190.53010485024,67.25722,0.223694,1.98192591644,17000,2016-09-26 18:27:29,10,15.03,190.53010485024,67.25722,0.9171454,2.24378944188,8.2,0,0,1024,1024,1117,1024,8.9,0,67,3.729,3.748,3.738,3.725,0,0,6,GPS_Atti,
41.2904143527673,-72.9651103768531,190.85818885024,67.585304,0.223694,2.0434875982,17100,2016-09-26 18:27:29,10,15.03,190.85818885024,67.585304,0.9171454,2.24378944188,8,0,0,1024,1024,1148,1024,8.9,0,67,3.729,3.748,3.738,3.725,0,0,6,GPS_Atti,
41.2904145977493,-72.9651101228443,191.18627285024,67.913388,0.223694,2.13340558008,17200,2016-09-26 18:27:29,10,15.03,191.18627285024,67.913388,0.9171454,2.24378944188,7.8,0,0,1024,1024,1163,1024,8.8,0,67,3.729,3.748,3.738,3.725,0,0,6,GPS_Atti,
41.2904144987513,-72.9651099556715,191.51435685024,68.241472,0.3131716,2.09892067084,17300,2016-09-26 18:27:29,10,15.054,191.51435685024,68.241472,0.9171454,2.24378944188,8,0,0,1024,1024,1140,1024,8.8,0,67,3.788,3.798,3.749,3.719,0,0,6,GPS_Atti,
41.2904147958445,-72.965109819066,191.84244085024,68.569556,0.3131716,2.2091700182,17400,2016-09-26 18:27:29,10,15.054,191.84244085024,68.569556,0.9171454,2.24378944188,8.3,0,0,1024,1024,1126,1024,8.8,0,67,3.788,3.798,3.749,3.719,0,0,6,GPS_Atti,
41.2904146619255,-72.9651096679476,192.17052485024,68.89764,0.3131716,2.16337933432,17500,2016-09-26 18:27:29,10,15.054,192.17052485024,68.89764,0.9171454,2.24378944188,8.3,0,0,1024,1024,1112,1024,8.8,0,67,3.788,3.798,3.749,3.719,0,0,6,GPS_Atti,
41.2904146394355,-72.965109712803,192.17052485024,68.89764,0.223694,2.1542323524,17600,2016-09-26 18:27:30,10,15.054,192.17052485024,68.89764,0.9171454,2.24378944188,8.4,0,0,1024,1024,1114,1024,8.8,0,67,3.788,3.798,3.749,3.719,0,0,6,GPS_Atti,
41.2904146140005,-72.9651096687042,192.49860885024,69.225724,0.223694,2.14593510804,17700,2016-09-26 18:27:30,10,15.054,192.49860885024,69.225724,0.9171454,2.24378944188,8.2,0,0,1024,1024,1110,1024,8.8,0,67,3.788,3.798,3.749,3.719,0,0,6,GPS_Atti,
41.2904146943832,-72.9651095496214,192.49860885024,69.225724,0.447388,2.17804796996,17800,2016-09-26 18:27:30,10,15.054,192.49860885024,69.225724,0.9171454,2.24378944188,8.3,0,0,1024,1024,1113,1024,8.8,0,67,3.788,3.798,3.749,3.719,0,0,6,GPS_Atti,
41.2904145071832,-72.9651094662551,192.82669285024,69.553808,0.447388,2.11245413584,17900,2016-09-26 18:27:30,10,15.054,192.82669285024,69.553808,0.9171454,2.24378944188,8.5,0,0,1024,1024,1115,1024,8.8,0,67,3.788,3.798,3.749,3.719,0,0,6,GPS_Atti,
41.2904144824542,-72.9651094984508,192.82669285024,69.553808,0.447388,2.10253287568,18000,2016-09-26 18:27:30,10,15.054,192.82669285024,69.553808,0.9171454,2.24378944188,8.6,0,0,1024,1024,1109,1024,8.8,0,67,3.788,3.798,3.749,3.719,0,0,6,GPS_Atti,
41.2904145342221,-72.9651092194694,192.82669285024,69.553808,0.223694,2.13069888708,18200,2016-09-26 18:27:30,10,15.054,192.82669285024,69.553808,0.9171454,2.24378944188,8.7,0,0,1024,1024,1114,1024,8.8,0,67,3.788,3.798,3.749,3.719,0,0,6,GPS_Atti,
41.2904145342221,-72.9651092194694,192.82669285024,69.553808,0.223694,2.13069888708,18200,2016-09-26 18:27:30,10,15.054,192.82669285024,69.553808,0.9171454,2.24378944188,8.7,0,0,1024,1024,1117,1024,8.8,0,67,3.788,3.798,3.749,3.719,0,0,6,GPS_Atti,
41.2904146692387,-72.9651091924613,192.82669285024,69.553808,0,2.18050859996,18400,2016-09-26 18:27:30,10,15.061,192.82669285024,69.553808,0.9171454,2.24378944188,8.3,0,0,1024,1024,1117,1024,8.8,0,67,3.739,3.76,3.763,3.799,0,0,6,GPS_Atti,
41.2904145932568,-72.9651091924174,193.15477685024,69.881892,0,2.1530676542,18500,2016-09-26 18:27:30,10,15.061,193.15477685024,69.881892,0.9171454,2.24378944188,7.8,0,0,1024,1024,1123,1024,8.8,0,67,3.739,3.76,3.763,3.799,0,0,6,GPS_Atti,
41.2904147839215,-72.9651093102092,193.15477685024,69.881892,0,2.21772316808,18600,2016-09-26 18:27:31,10,15.061,193.15477685024,69.881892,0.9171454,2.24378944188,8,0,0,1024,1024,1123,1024,8.8,0,67,3.739,3.76,3.763,3.799,0,0,6,GPS_Atti,
41.2904149435596,-72.9651094544297,193.15477685024,69.881892,0,2.27110571572,18700,2016-09-26 18:27:31,10,15.061,193.15477685024,69.881892,0.9171454,2.27110571572,7.6,0,0,1024,1024,1123,1024,8.7,0,67,3.739,3.76,3.763,3.799,0,0,6,GPS_Atti,
41.2904150286383,-72.9651095758628,193.15477685024,69.881892,0,2.29882881372,18800,2016-09-26 18:27:31,10,15.061,193.15477685024,69.881892,0.9171454,2.29882881372,7.5,0,0,1024,1024,1125,1024,8.7,0,67,3.739,3.76,3.763,3.799,0,0,6,GPS_Atti,
41.2904150024397,-72.9651095821529,193.15477685024,69.881892,0,2.2891568974,18900,2016-09-26 18:27:31,10,15.061,193.15477685024,69.881892,0.9171454,2.29882881372,7.6,0,0,1024,1024,1106,1024,8.7,0,67,3.739,3.76,3.763,3.799,0,0,6,GPS_Atti,
41.2904152418386,-72.9651099595838,193.15477685024,69.881892,0,2.3697343278,19000,2016-09-26 18:27:31,10,15.061,193.15477685024,69.881892,0.9171454,2.3697343278,8,0,0,1024,1024,1090,1024,8.7,0,67,3.739,3.76,3.763,3.799,0,0,6,GPS_Atti,
41.290415175413,-72.9651099326411,193.15477685024,69.881892,0,2.3458334084,19100,2016-09-26 18:27:31,10,15.061,193.15477685024,69.881892,0.9171454,2.3697343278,7.9,0,0,1024,1024,1024,1024,8.6,0,67,3.739,3.76,3.763,3.799,0,0,6,GPS_Atti,
41.2904154195017,-72.9651102062089,193.48286085024,70.209976,0.223694,2.43276910672,19300,2016-09-26 18:27:31,10,15.061,193.48286085024,70.209976,0.9171454,2.43276910672,8.6,0,0,1024,1024,1024,1024,8.6,0,67,3.739,3.76,3.763,3.799,0,0,6,GPS_Atti,
41.2904154496381,-72.9651103632075,193.48286085024,70.209976,0,2.44364181048,19400,2016-09-26 18:27:31,10,15.061,193.48286085024,70.209976,0.9171454,2.44364181048,8.5,0,0,1024,1024,1024,1024,8.6,0,67,3.739,3.76,3.763,3.799,0,0,6,GPS_Atti,
41.290415389482,-72.9651103057993,193.48286085024,70.209976,0,2.42165033996,19500,2016-09-26 18:27:31,10,15.272,193.48286085024,70.209976,0.9171454,2.44364181048,8.5,0,0,1024,1024,1024,1024,8.6,0,67,3.805,3.819,3.818,3.829,0,0,6,GPS_Atti,
41.2904155812755,-72.9651106552449,193.48286085024,70.209976,0,2.49341871496,19600,2016-09-26 18:27:32,10,15.272,193.48286085024,70.209976,0.9171454,2.49341871496,8.8,0,0,1024,1024,1024,1024,8.6,0,67,3.805,3.819,3.818,3.829,0,0,6,GPS_Atti,
41.2904155272652,-72.9651105964382,193.48286085024,70.209976,0,2.4731628088,19700,2016-09-26 18:27:32,10,15.272,193.48286085024,70.209976,0.9171454,2.49341871496,8.7,0,0,1024,1024,1024,1024,8.6,0,67,3.805,3.819,3.818,3.829,0,0,6,GPS_Atti,
41.2904155711665,-72.9651107372294,193.48286085024,70.209976,0,2.49068905608,19800,2016-09-26 18:27:32,10,15.272,193.48286085024,70.209976,0.9171454,2.49341871496,8.7,0,0,1024,1024,1024,1024,8.6,0,67,3.805,3.819,3.818,3.829,0,0,6,GPS_Atti,
41.290415733069,-72.9651108162747,193.48286085024,70.209976,0.223694,2.55078092152,19900,2016-09-26 18:27:32,10,15.272,193.48286085024,70.209976,0.9171454,2.55078092152,8.8,0,0,1024,1024,1024,1024,8.6,0,67,3.805,3.819,3.818,3.829,0,0,6,GPS_Atti,
41.2904157676807,-72.9651108584939,193.48286085024,70.209976,0,2.5640420768,20000,2016-09-26 18:27:32,10,15.272,193.48286085024,70.209976,0.9171454,2.5640420768,9,0,0,1024,1024,1024,1024,8.6,0,67,3.805,3.819,3.818,3.829,0,0,6,GPS_Atti,
41.2904156945759,-72.9651108103102,193.48286085024,70.209976,0.223694,2.53667002868,20100,2016-09-26 18:27:32,10,15.272,193.48286085024,70.209976,0.9171454,2.5640420768,9,0,0,1024,1024,1024,1024,8.6,0,67,3.805,3.819,3.818,3.829,0,0,6,GPS_Atti,
41.2904157889546,-72.9651107786303,193.48286085024,70.209976,0.223694,2.5706037568,20300,2016-09-26 18:27:32,10,15.272,193.48286085024,70.209976,0.9171454,2.5706037568,9.4,0,0,1024,1024,1024,1024,8.6,0,67,3.805,3.819,3.818,3.829,0,0,6,GPS_Atti,
41.2904157344695,-72.9651107294721,193.48286085024,70.209976,0.223694,2.55010834932,20400,2016-09-26 18:27:32,10,15.272,193.48286085024,70.209976,0.9171454,2.5706037568,9.3,0,0,1024,1024,1024,1024,8.6,0,67,3.805,3.819,3.818,3.829,0,0,6,GPS_Atti,
41.2904158204725,-72.9651107163539,193.48286085024,70.209976,0.223694,2.58129601436,20500,2016-09-26 18:27:32,10,15.272,193.48286085024,70.209976,0.9171454,2.58129601436,9.2,0,0,1024,1024,1024,1024,8.6,0,67,3.805,3.819,3.818,3.829,0,0,6,GPS_Atti,
41.2904156820824,-72.9651106811029,193.48286085024,70.209976,0.223694,2.5304462752,20600,2016-09-26 18:27:33,10,15.258,193.48286085024,70.209976,0.9171454,2.58129601436,9.6,0,0,1024,1024,1024,1024,8.6,0,67,3.813,3.828,3.803,3.821,0,0,6,GPS_Atti,
41.2904156553061,-72.9651106517802,193.48286085024,70.209976,0.223694,2.5203740964,20700,2016-09-26 18:27:33,10,15.258,193.48286085024,70.209976,0.9171454,2.58129601436,9.6,0,0,1024,1024,1024,1024,8.6,0,67,3.813,3.828,3.803,3.821,0,0,6,GPS_Atti,
41.2904157587652,-72.9651105641405,193.48286085024,70.209976,0.223694,2.55732947816,20800,2016-09-26 18:27:33,10,15.258,193.48286085024,70.209976,0.9171454,2.58129601436,9.2,0,0,1024,1024,1024,1024,8.6,0,67,3.813,3.828,3.803,3.821,0,0,6,GPS_Atti,
41.2904157475304,-72.9651105495553,193.48286085024,70.209976,0.223694,2.55312672212,20900,2016-09-26 18:27:33,10,15.258,193.48286085024,70.209976,0.9171454,2.58129601436,9.1,0,0,1024,1024,1024,1024,8.6,0,67,3.813,3.828,3.803,3.821,0,0,6,GPS_Atti,
41.2904157263393,-72.965110341779,193.48286085024,70.209976,0,2.54456701056,21000,2016-09-26 18:27:33,10,15.258,193.48286085024,70.209976,0.9171454,2.58129601436,8.6,0,0,1024,1024,1024,1024,8.6,0,67,3.813,3.828,3.803,3.821,0,0,6,GPS_Atti,
41.2904156960064,-72.9651103324039,193.15477685024,69.881892,0.223694,2.53349089472,21100,2016-09-26 18:27:33,10,15.258,193.48286085024,70.209976,0.9171454,2.58129601436,9.1,0,0,1024,1024,1024,1024,8.6,0,67,3.813,3.828,3.803,3.821,0,0,6,GPS_Atti,
41.2904157478617,-72.9651102217437,193.15477685024,69.881892,0.223694,2.55251976672,21200,2016-09-26 18:27:33,10,15.258,193.48286085024,70.209976,0.9171454,2.58129601436,9.1,0,0,1024,1024,1024,1024,8.6,0,67,3.813,3.828,3.803,3.821,0,0,6,GPS_Atti,
41.2904156842539,-72.9651101797777,193.15477685024,69.881892,0.223694,2.52944889984,21300,2016-09-26 18:27:33,10,15.258,193.48286085024,70.209976,0.9171454,2.58129601436,9,0,0,1024,1024,1024,1024,8.6,0,67,3.813,3.828,3.803,3.821,0,0,6,GPS_Atti,
41.2904156072272,-72.9651099208335,193.48286085024,70.209976,0.3131716,2.50337278352,21400,2016-09-26 18:27:33,10,15.258,193.48286085024,70.209976,0.9171454,2.58129601436,9.1,0,0,1024,1024,1024,1024,8.6,0,67,3.813,3.828,3.803,3.821,0,0,6,GPS_Atti,
41.2904156082599,-72.9651098350284,193.48286085024,70.209976,0.3131716,2.50486228488,21500,2016-09-26 18:27:34,10,15.258,193.48286085024,70.209976,0.9171454,2.58129601436,8.9,0,0,1024,1024,1024,1024,8.6,0,67,3.813,3.828,3.803,3.821,0,0,6,GPS_Atti,
41.2904154356618,-72.9651095751736,193.48286085024,70.209976,0.3131716,2.44681110192,21600,2016-09-26 18:27:34,10,15.241,193.48286085024,70.209976,0.9171454,2.58129601436,9,0,0,1024,1024,1024,1024,8.6,0,67,3.794,3.814,3.802,3.809,0,0,6,GPS_Atti,
41.2904152151769,-72.9651092828607,193.48286085024,70.209976,0.3131716,2.37481634896,21800,2016-09-26 18:27:34,10,15.241,193.48286085024,70.209976,0.9171454,2.58129601436,8.9,0,0,1024,1024,1024,1024,8.7,0,67,3.794,3.814,3.802,3.809,0,0,6,GPS_Atti,
41.290415052029,-72.9651091246004,193.48286085024,70.209976,0.3131716,2.32140099292,21900,2016-09-26 18:27:34,10,15.241,193.48286085024,70.209976,0.9171454,2.58129601436,8.9,0,0,1024,1024,1024,1024,8.6,0,67,3.794,3.814,3.802,3.809,0,0,6,GPS_Atti,
41.2904149428119,-72.9651088459434,193.48286085024,70.209976,0.3131716,2.2940781574,22000,2016-09-26 18:27:34,10,15.241,193.48286085024,70.209976,0.9171454,2.58129601436,9.3,0,0,1024,1024,1024,1024,8.6,0,67,3.794,3.814,3.802,3.809,0,0,6,GPS_Atti,
41.2904148772881,-72.9651087086936,193.81094485024,70.53806,0.3131716,2.27750007288,22100,2016-09-26 18:27:34,10,15.241,193.81094485024,70.53806,0.9171454,2.58129601436,9,0,0,1024,1024,1024,1024,8.7,0,67,3.794,3.814,3.802,3.809,0,0,6,GPS_Atti,
41.2904149329956,-72.9651085084302,193.81094485024,70.53806,0.3131716,2.30856634684,22200,2016-09-26 18:27:34,10,15.241,193.81094485024,70.53806,0.9171454,2.58129601436,8.9,0,0,1024,1024,1024,1024,8.6,0,67,3.794,3.814,3.802,3.809,0,0,6,GPS_Atti,
41.2904148307461,-72.9651083864605,193.81094485024,70.53806,0.223694,2.2796424614,22300,2016-09-26 18:27:34,10,15.241,193.81094485024,70.53806,0.9171454,2.58129601436,8.8,0,0,1024,1024,1024,1024,8.6,0,67,3.794,3.814,3.802,3.809,0,0,6,GPS_Atti,
41.2904148659143,-72.9651081932688,193.81094485024,70.53806,0.223694,2.3048885252,22400,2016-09-26 18:27:34,10,15.241,193.81094485024,70.53806,0.9171454,2.58129601436,8.6,0,0,1024,1024,1024,1024,8.7,0,67,3.794,3.814,3.802,3.809,0,0,6,GPS_Atti,
41.2904147683933,-72.9651081093417,193.81094485024,70.53806,0.223694,2.27646332744,22500,2016-09-26 18:27:34,10,15.241,193.81094485024,70.53806,0.9171454,2.58129601436,8.7,0,0,1024,1024,1024,1024,8.7,0,67,3.794,3.814,3.802,3.809,0,0,6,GPS_Atti,
41.2904146723573,-72.9651080294021,193.81094485024,70.53806,0.223694,2.24869101684,22600,2016-09-26 18:27:35,10,15.241,193.81094485024,70.53806,0.9171454,2.58129601436,9,0,0,1024,1024,1024,1024,8.7,0,67,3.794,3.814,3.802,3.809,0,0,6,GPS_Atti,
41.2904146061571,-72.9651079378454,194.13902885024,70.866144,0.223694,2.23268051764,22700,2016-09-26 18:27:35,10,15.263,194.13902885024,70.866144,0.9171454,2.58129601436,9.2,0,0,1024,996,1024,1024,8.7,0,67,3.804,3.847,3.837,3.787,0,0,6,GPS_Atti,
41.2904145625821,-72.9651079014794,194.13902885024,70.866144,0.223694,2.2204232994,22800,2016-09-26 18:27:35,10,15.263,194.13902885024,70.866144,0.9171454,2.58129601436,9.5,0,0,1024,904,1024,1024,8.7,0,67,3.804,3.847,3.837,3.787,0,0,6,GPS_Atti,
41.2904144264588,-72.9651078710128,194.13902885024,70.866144,0.223694,2.175607025,22900,2016-09-26 18:27:35,10,15.263,194.13902885024,70.866144,0.9171454,2.58129601436,8.9,0,0,1024,772,1024,1024,8.7,0,67,3.804,3.847,3.837,3.787,0,0,6,GPS_Atti,
41.2904143215159,-72.9651079273802,194.13902885024,70.866144,0.223694,2.13442592132,23000,2016-09-26 18:27:35,10,15.263,194.13902885024,70.866144,0.9171454,2.58129601436,8.9,0,0,1024,858,1024,1024,8.7,0,67,3.804,3.847,3.837,3.787,0,0,6,GPS_Atti,
41.2904142272952,-72.9651081022259,193.81094485024,70.53806,0.447388,2.08732290144,23100,2016-09-26 18:27:35,10,15.263,194.13902885024,70.866144,0.9171454,2.58129601436,8.2,0,0,1024,809,1024,1024,8.7,0,67,3.804,3.847,3.837,3.787,0,0,6,GPS_Atti,
41.2904142263312,-72.9651084097567,193.81094485024,70.53806,0.671082,2.06411095844,23200,2016-09-26 18:27:35,10,15.263,194.13902885024,70.866144,0.9171454,2.58129601436,8.5,0,0,1024,715,1024,1024,8.7,0,67,3.804,3.847,3.837,3.787,0,0,6,GPS_Atti,
41.2904142726485,-72.9651089502049,193.81094485024,70.53806,1.11847,2.048392454,23300,2016-09-26 18:27:35,10,15.263,194.13902885024,70.866144,1.11847,2.58129601436,8.4,0,0,1024,732,1024,1024,8.7,0,67,3.804,3.847,3.837,3.787,0,0,6,GPS_Atti,
41.2904143734424,-72.9651098084999,193.81094485024,70.53806,1.5882274,2.05555780856,23400,2016-09-26 18:27:35,10,15.263,194.13902885024,70.866144,1.5882274,2.58129601436,8.3,0,0,1024,720,1024,1024,8.7,0,67,3.804,3.847,3.837,3.787,0,0,6,GPS_Atti,
41.2904147536655,-72.9651120429674,194.13902885024,70.866144,2.2816788,2.24059718456,23600,2016-09-26 18:27:36,10,15.263,194.13902885024,70.866144,2.2816788,2.58129601436,9,0,0,1024,1009,1024,1024,8.7,0,67,3.804,3.847,3.837,3.787,0,0,6,GPS_Atti,
41.2904149594707,-72.9651134064187,194.13902885024,70.866144,2.5053728,2.41858275456,23700,2016-09-26 18:27:36,10,15.263,194.13902885024,70.866144,2.5053728,2.58129601436,9.8,0,0,1024,1024,1024,1024,8.7,0,67,3.804,3.847,3.837,3.787,0,0,6,GPS_Atti,
41.2904151541414,-72.9651153100312,194.13902885024,70.866144,2.684328,2.70822515228,23800,2016-09-26 18:27:36,10,15.274,194.13902885024,70.866144,2.684328,2.70822515228,9.8,0,0,1024,1024,1024,1024,8.8,0,67,3.8,3.823,3.836,3.834,0,0,6,GPS_Atti,
41.2904151988261,-72.9651166593894,194.46711285024,71.194228,2.460634,2.9260499624,23900,2016-09-26 18:27:36,10,15.274,194.46711285024,71.194228,2.684328,2.9260499624,10.4,0,0,1024,1024,1024,1024,8.8,0,67,3.8,3.823,3.836,3.834,0,0,6,GPS_Atti,
41.2904153379792,-72.9651184893344,194.46711285024,71.194228,2.23694,3.2865158532,24000,2016-09-26 18:27:36,10,15.274,194.46711285024,71.194228,2.684328,3.2865158532,10.8,0,0,1024,1024,1024,1024,8.8,0,67,3.8,3.823,3.836,3.834,0,0,6,GPS_Atti,
41.2904154615978,-72.9651197412843,194.46711285024,71.194228,2.0356154,3.5604331848,24100,2016-09-26 18:27:36,10,15.274,194.46711285024,71.194228,2.684328,3.5604331848,10.8,0,0,1024,1024,1024,897,8.9,0,67,3.8,3.823,3.836,3.834,0,0,6,GPS_Atti,
41.2904155828272,-72.9651226125493,194.79519685024,71.522312,1.789552,4.1934384544,24300,2016-09-26 18:27:36,10,15.274,194.79519685024,71.522312,2.684328,4.1934384544,9.6,0,0,1024,1024,1024,813,7.4,0,67,3.8,3.823,3.836,3.834,0,0,6,GPS_Atti,
41.2904156774447,-72.9651238578007,194.79519685024,71.522312,1.565858,4.4918964692,24400,2016-09-26 18:27:36,10,15.274,194.79519685024,71.522312,2.684328,4.4918964692,7.2,0,0,1024,1024,1024,815,6.3,0,67,3.8,3.823,3.836,3.834,0,0,6,GPS_Atti,
41.2904157099574,-72.9651246886943,194.79519685024,71.522312,1.342164,4.6884187852,24500,2016-09-26 18:27:36,10,15.274,194.79519685024,71.522312,2.684328,4.6884187852,5.3,0,0,1024,1024,1024,758,4.9,0,67,3.8,3.823,3.836,3.834,0,0,6,GPS_Atti,
41.2904159170533,-72.9651261054472,194.79519685024,71.522312,1.11847,5.0579726028,24600,2016-09-26 18:27:37,10,15.274,194.79519685024,71.522312,2.684328,5.0579726028,2.3,0,0,1024,1024,1024,776,3.2,0,67,3.8,3.823,3.836,3.834,0,0,6,GPS_Atti,
41.2904159557748,-72.9651266857803,194.79519685024,71.522312,0.894776,5.201935862,24700,2016-09-26 18:27:37,10,15.274,194.79519685024,71.522312,2.684328,5.201935862,359,0,0,1024,1024,1006,813,1.3,0,67,3.8,3.823,3.836,3.834,0,0,6,GPS_Atti,
41.2904161144084,-72.9651272325788,194.79519685024,71.522312,0.671082,5.3605972844,24800,2016-09-26 18:27:37,10,15.274,194.79519685024,71.522312,2.684328,5.3605972844,355.6,0,0,1024,1024,996,871,359.5,0,67,3.8,3.823,3.836,3.834,0,0,6,GPS_Atti,
41.2904163562662,-72.9651281636691,194.79519685024,71.522312,0.447388,5.6259516236,24900,2016-09-26 18:27:37,10,15.258,194.79519685024,71.522312,2.684328,5.6259516236,353.4,0,0,1024,1024,1009,898,357.6,0,67,3.827,3.851,3.822,3.773,0,0,6,GPS_Atti,
41.2904166474092,-72.9651285684778,194.79519685024,71.522312,0.4921268,5.7750001848,25000,2016-09-26 18:27:37,10,15.258,194.79519685024,71.522312,2.684328,5.7750001848,351.5,0,0,1024,1024,990,939,356,0,67,3.827,3.851,3.822,3.773,0,0,6,GPS_Atti,
41.290417259079,-72.9651296714768,194.79519685024,71.522312,0.4921268,6.1485238188,25200,2016-09-26 18:27:37,10,15.258,194.79519685024,71.522312,2.684328,6.1485238188,350,0,0,1024,1024,1024,939,354.6,0,67,3.827,3.851,3.822,3.773,0,0,6,GPS_Atti,
41.2904174021625,-72.9651299059329,194.79519685024,71.522312,0.3131716,6.2303807768,25300,2016-09-26 18:27:37,10,15.258,194.79519685024,71.522312,2.684328,6.2303807768,349,0,0,1024,1024,1023,891,353.6,0,67,3.827,3.851,3.822,3.773,0,0,6,GPS_Atti,
41.2904176228742,-72.96513007188,194.79519685024,71.522312,0.3131716,6.3105645064,25400,2016-09-26 18:27:37,10,15.258,194.79519685024,71.522312,2.684328,6.3105645064,347.9,0,0,1024,1024,987,720,350,0,67,3.827,3.851,3.822,3.773,0,0,6,GPS_Atti,
41.2904179181498,-72.9651305738317,194.79519685024,71.522312,0.223694,6.4839897088,25500,2016-09-26 18:27:37,10,15.258,194.79519685024,71.522312,2.684328,6.4839897088,344.2,0,0,1024,1024,971,763,347.5,0,67,3.827,3.851,3.822,3.773,0,0,6,GPS_Atti,
41.2904180590762,-72.9651305794605,194.79519685024,71.522312,0,6.511975274,25600,2016-09-26 18:27:38,10,15.258,194.79519685024,71.522312,2.684328,6.511975274,340.1,0,0,1024,1024,971,763,344.8,0,67,3.827,3.851,3.822,3.773,0,0,6,GPS_Atti,
41.2904181324121,-72.9651306032445,194.79519685024,71.522312,0,6.5315290804,25700,2016-09-26 18:27:38,10,15.258,194.79519685024,71.522312,2.684328,6.5315290804,337.2,0,0,1024,1024,1021,779,341.8,0,67,3.827,3.851,3.822,3.773,0,0,6,GPS_Atti,
41.2904182630416,-72.9651307169389,194.79519685024,71.522312,0,6.5830710768,25800,2016-09-26 18:27:38,10,15.258,194.79519685024,71.522312,2.684328,6.5830710768,333.8,0,0,1024,1024,1024,779,338.9,0,67,3.827,3.851,3.822,3.773,0,0,6,GPS_Atti,
41.2904183105697,-72.965130619857,194.79519685024,71.522312,0,6.5696524412,25900,2016-09-26 18:27:38,10,15.258,194.79519685024,71.522312,2.684328,6.5830710768,331.4,0,0,1024,1024,1024,757,336,0,67,3.827,3.851,3.822,3.773,0,0,6,GPS_Atti,
41.2904182161705,-72.9651304727453,194.79519685024,71.522312,0.223694,6.517224618,26000,2016-09-26 18:27:38,10,15.169,194.79519685024,71.522312,2.684328,6.5830710768,329.4,0,0,1024,1024,1024,735,333.3,0,67,3.793,3.793,3.789,3.794,0,0,6,GPS_Atti,
41.2904182268878,-72.9651304669125,194.79519685024,71.522312,0.223694,6.5179135944,26100,2016-09-26 18:27:38,10,15.169,194.79519685024,71.522312,2.684328,6.5830710768,327,0,0,1024,1024,1023,719,330.6,0,67,3.793,3.793,3.789,3.794,0,0,6,GPS_Atti,
41.2904182101826,-72.9651300917542,194.79519685024,71.522312,0.223694,6.4276904944,26200,2016-09-26 18:27:38,10,15.169,194.79519685024,71.522312,2.684328,6.5830710768,322.9,0,0,1024,1024,1008,719,327.6,0,67,3.793,3.793,3.789,3.794,0,0,6,GPS_Atti,
41.2904182304335,-72.9651299617648,194.46711285024,71.194228,0.223694,6.4016406248,26300,2016-09-26 18:27:38,10,15.169,194.79519685024,71.522312,2.684328,6.5830710768,319.2,0,0,1024,1024,968,728,324.2,0,67,3.793,3.793,3.789,3.794,0,0,6,GPS_Atti,
41.2904179599857,-72.9651296633119,194.46711285024,71.194228,0.223694,6.2796261852,26400,2016-09-26 18:27:38,10,15.169,194.79519685024,71.522312,2.684328,6.5830710768,315.7,0,0,1024,1024,991,728,320.9,0,67,3.793,3.793,3.789,3.794,0,0,6,GPS_Atti,
41.2904179722032,-72.9651294734196,194.46711285024,71.194228,0.223694,6.2380907508,26500,2016-09-26 18:27:39,10,15.169,194.79519685024,71.522312,2.684328,6.5830710768,312.6,0,0,1024,1024,1024,685,317.5,0,67,3.793,3.793,3.789,3.794,0,0,6,GPS_Atti,
41.2904177573905,-72.965129063172,194.46711285024,71.194228,0.223694,6.1011156808,26600,2016-09-26 18:27:39,10,15.169,194.79519685024,71.522312,2.684328,6.5830710768,308.4,0,0,1024,1024,1024,643,313.7,0,67,3.793,3.793,3.789,3.794,0,0,6,GPS_Atti,
41.2904172098549,-72.9651284657366,194.46711285024,71.194228,0.223694,5.8561025496,26800,2016-09-26 18:27:39,10,15.169,194.79519685024,71.522312,2.684328,6.5830710768,297.9,0,0,1024,1024,1024,618,309.2,0,67,3.793,3.793,3.789,3.794,0,0,6,GPS_Atti,
