latitude,longitude,altitude(feet),ascent(feet),speed(mph),distance(feet),time(millisecond),datetime(utc),satellites,voltage(v),max_altitude(feet),max_ascent(feet),max_speed(mph),max_distance(feet),compass_heading(degrees),isPhoto,isVideo,rc_elevator,rc_aileron,rc_throttle,rc_rudder,gimbal_heading(degrees),gimbal_pitch(degrees),battery_percent,voltageCell1,voltageCell2,voltageCell3,voltageCell4,voltageCell5,voltageCell6,flycStateRaw,flycState,message
41.2944871526276,-72.96442396355,156.75737968815,0,0,0,510700,2016-09-15 17:51:19,10,0,156.75737968815,0,0,0,164.8,0,0,1024,1024,1024,1024,164.6,-14.9,40,3.812,3.817,3.811,3.814,0,0,6,GPS_Atti,Home Point Recorded
41.2944873623452,-72.9644238005956,156.75737968815,0,0,0.088600068452,510800,2016-09-15 17:51:19,10,0,156.75737968815,0,0,0.088600068452,164.8,0,0,1024,1024,1024,1024,164.6,-14.9,40,3.812,3.817,3.811,3.814,0,0,6,GPS_Atti,
41.2944873672593,-72.96442377003,156.75737968815,0,0,0.094584648696,510900,2016-09-15 17:51:19,10,0,156.75737968815,0,0,0.094584648696,164.8,0,0,1024,1024,1024,1024,164.6,-14.9,40,3.812,3.817,3.811,3.814,0,0,6,GPS_Atti,
41.2944874675175,-72.9644236710895,156.75737968815,0,0,0.140093836504,511000,2016-09-15 17:51:19,10,0,156.75737968815,0,0,0.140093836504,164.7,0,0,1024,1024,1024,1024,164.6,-14.9,40,3.812,3.817,3.811,3.814,0,0,6,GPS_Atti,
41.2944874680316,-72.9644236713147,156.75737968815,0,0,0.140212602912,511100,2016-09-15 17:51:19,10,0,156.75737968815,0,0,0.140212602912,164.7,0,0,1024,1024,1024,1024,164.6,-14.9,40,3.812,3.817,3.811,3.814,0,0,6,GPS_Atti,
41.2944876687458,-72.9644235715788,156.75737968815,0,0,0.216803812712,511200,2016-09-15 17:51:19,10,0,156.75737968815,0,0,0.216803812712,164.8,0,0,1024,1024,1024,1024,164.6,-14.9,40,3.812,3.817,3.811,3.814,0,0,6,GPS_Atti,
41.2944876510313,-72.9644235726548,156.75737968815,0,0,0.2110646393,511300,2016-09-15 17:51:19,10,0,156.75737968815,0,0,0.216803812712,164.8,0,0,1024,1024,1024,1024,164.6,-14.9,40,3.812,3.817,3.811,3.814,0,0,6,GPS_Atti,
41.294487751996,-72.9644234734493,156.75737968815,0,0,0.256650926848,511400,2016-09-15 17:51:19,10,0,156.75737968815,0,0,0.256650926848,164.8,0,0,1024,1024,1024,1024,164.6,-14.9,40,3.812,3.817,3.811,3.814,0,0,6,GPS_Atti,
41.2944877528976,-72.9644234744721,156.75737968815,0,0,0.25678478512,511500,2016-09-15 17:51:20,10,0,156.75737968815,0,0,0.25678478512,164.8,0,0,1024,1024,1024,1024,164.6,-14.9,40,3.812,3.817,3.811,3.814,0,0,6,GPS_Atti,
41.2944879567739,-72.9644233729523,156.75737968815,0,0,0.33509515508,511600,2016-09-15 17:51:20,10,15.255,156.75737968815,0,0,0.33509515508,164.8,0,0,1024,1024,1024,1024,164.6,-14.9,40,3.812,3.817,3.811,3.814,0,0,6,GPS_Atti,
41.2944879570338,-72.9644233738335,156.75737968815,0,0,0.33506234668,511700,2016-09-15 17:51:20,10,15.255,156.75737968815,0,0,0.33509515508,164.8,0,0,1024,1024,1024,1024,164.6,-14.9,40,3.812,3.817,3.811,3.814,0,0,6,GPS_Atti,
41.2944880569131,-72.9644232741112,156.75737968815,0,0,0.38022310928,511800,2016-09-15 17:51:20,10,15.255,156.75737968815,0,0,0.38022310928,164.8,0,0,1024,1024,1024,1024,164.6,-14.9,40,3.812,3.817,3.811,3.814,0,0,6,GPS_Atti,
41.2944880571681,-72.9644232752221,156.75737968815,0,0,0.38015421164,511900,2016-09-15 17:51:20,10,15.255,156.75737968815,0,0,0.38022310928,164.8,0,0,1024,1024,1024,1024,164.6,-14.9,40,3.812,3.817,3.811,3.814,0,0,6,GPS_Atti,
41.2944882575637,-72.9644231754221,156.75737968815,0,0,0.45737534272,512000,2016-09-15 17:51:20,10,15.255,156.75737968815,0,0,0.45737534272,164.8,0,0,1024,1024,1024,1024,164.6,-14.9,40,3.812,3.817,3.811,3.814,0,0,6,GPS_Atti,
41.2944882577281,-72.9644231750134,156.75737968815,0,0,0.4574803296,512100,2016-09-15 17:51:20,10,15.255,156.75737968815,0,0,0.4574803296,164.8,0,0,1024,1024,1024,1024,164.6,-14.9,40,3.812,3.817,3.811,3.814,0,0,6,GPS_Atti,
41.2944884585224,-72.9644230232204,156.42929568815,-0.328084,0,0.54171261576,512200,2016-09-15 17:51:20,10,15.255,156.75737968815,0,0,0.54171261576,164.8,0,0,1024,1024,1024,1024,164.6,-14.9,40,3.812,3.817,3.811,3.814,0,0,6,GPS_Atti,
41.2944884595333,-72.9644230237237,156.42929568815,-0.328084,0,0.54197180212,512300,2016-09-15 17:51:20,10,15.255,156.75737968815,0,0,0.54197180212,164.7,0,0,1024,1024,1024,1024,164.6,-14.9,40,3.812,3.817,3.811,3.814,0,0,6,GPS_Atti,
41.2944886604968,-72.9644229246863,156.42929568815,-0.328084,0,0.61948164712,512400,2016-09-15 17:51:20,10,15.255,156.75737968815,0,0,0.61948164712,164.7,0,0,1024,1024,1024,1024,164.6,-14.9,40,3.812,3.817,3.811,3.814,0,0,6,GPS_Atti,
41.2944886428189,-72.9644229656946,156.10121168815,-0.656168,0,0.60862534756,512500,2016-09-15 17:51:21,10,15.255,156.75737968815,0,0,0.61948164712,164.8,0,0,1024,1024,1024,1024,164.6,-14.9,40,3.812,3.817,3.811,3.814,0,0,6,GPS_Atti,
41.2944889435999,-72.9644227666393,156.10121168815,-0.656168,0,0.73118112576,512600,2016-09-15 17:51:21,10,15.255,156.75737968815,0,0,0.73118112576,164.8,0,0,1024,1024,1024,1024,164.6,-14.9,40,3.812,3.817,3.812,3.815,0,0,6,GPS_Atti,Taking off
41.2944889447442,-72.9644227668193,156.10121168815,-0.656168,0,0.73153217564,512700,2016-09-15 17:51:21,10,15.255,156.75737968815,0,0,0.73153217564,164.7,0,0,1024,1024,1024,1024,164.6,-14.9,40,3.812,3.817,3.812,3.815,0,0,11,AutoTakeoff,Return-to-Home Altitude:98FT
41.294489160422,-72.9644226574572,156.10121168815,-0.656168,0,0.8153543568,512800,2016-09-15 17:51:21,10,15.255,156.75737968815,0,0,0.8153543568,164.7,0,0,1024,1024,1065,1024,164.6,-14.9,40,3.812,3.817,3.812,3.815,0,0,11,AutoTakeoff,
41.2944891623149,-72.9644226564776,156.10121168815,-0.656168,0,0.8160925458,512900,2016-09-15 17:51:21,10,15.255,156.75737968815,0,0,0.8160925458,164.7,0,0,1024,1024,1052,1024,164.6,-14.9,40,3.812,3.817,3.812,3.815,0,0,11,AutoTakeoff,
41.2944893566374,-72.9644226633021,156.10121168815,-0.656168,0,0.87958336148,513100,2016-09-15 17:51:21,10,15.255,156.75737968815,0,0,0.87958336148,164.7,0,0,1024,1024,1033,1024,164.6,-14.9,40,3.812,3.817,3.812,3.815,0,0,11,AutoTakeoff,
41.2944894578251,-72.9644225621392,155.77312768815,-0.984252,0,0.92462929468,513200,2016-09-15 17:51:21,10,15.255,156.75737968815,0,0,0.92462929468,164.7,0,0,1024,1024,1064,1024,164.6,-14.9,40,3.812,3.817,3.812,3.815,0,0,11,AutoTakeoff,
41.2944894593647,-72.9644225623931,155.77312768815,-0.984252,0,0.92511157816,513300,2016-09-15 17:51:21,10,15.255,156.75737968815,0,0,0.92511157816,164.7,0,0,1024,1024,1096,1024,164.6,-14.9,40,3.812,3.817,3.812,3.815,0,0,11,AutoTakeoff,
41.2944896568616,-72.9644225850591,155.44504368815,-1.312336,0,0.98872706576,513400,2016-09-15 17:51:21,10,15.255,156.75737968815,0,0,0.98872706576,164.7,0,0,1024,1024,1123,1024,164.6,-14.9,40,3.812,3.817,3.812,3.815,0,0,11,AutoTakeoff,
41.2944896638577,-72.964422586635,155.11695968815,-1.64042,0,0.99092194772,513500,2016-09-15 17:51:21,10,15.255,156.75737968815,0,0,0.99092194772,164.6,0,0,1024,1024,1108,1024,164.6,-14.9,40,3.812,3.817,3.812,3.815,0,0,11,AutoTakeoff,
41.2944896871416,-72.9644225708454,154.78887568815,-1.968504,0,1.00042326036,513600,2016-09-15 17:51:22,10,15.255,156.75737968815,0,0,1.00042326036,164.4,0,0,1024,1024,1116,1024,164.6,-14.9,40,3.812,3.817,3.812,3.815,0,0,11,AutoTakeoff,
41.2944900270379,-72.964422524575,154.13270768815,-2.624672,0.223694,1.1204560726,513800,2016-09-15 17:51:22,10,15.151,156.75737968815,0,0.223694,1.1204560726,163.3,0,0,1024,1024,1119,1024,164.6,-14.9,40,3.804,3.784,3.791,3.803,0,0,11,AutoTakeoff,
41.2944901710238,-72.9644225771201,154.13270768815,-2.624672,0.447388,1.1649934756,513900,2016-09-15 17:51:22,10,15.151,156.75737968815,0,0.447388,1.1649934756,162.6,0,0,1024,1024,1058,1024,164.6,-14.9,40,3.804,3.784,3.791,3.803,0,0,11,AutoTakeoff,
41.2944905081151,-72.9644225561096,154.13270768815,-2.624672,0.4921268,1.28360240328,514000,2016-09-15 17:51:22,10,15.151,156.75737968815,0,0.4921268,1.28360240328,162.3,0,0,1024,1024,1041,1024,164.5,-14.9,40,3.804,3.784,3.791,3.803,0,0,11,AutoTakeoff,
41.294490699026,-72.9644227167137,154.46079168815,-2.296588,0.4921268,1.33828088272,514100,2016-09-15 17:51:22,10,15.151,156.75737968815,0,0.4921268,1.33828088272,162.3,0,0,1024,1024,1107,1024,164.4,-14.9,40,3.804,3.784,3.791,3.803,0,0,11,AutoTakeoff,
41.2944911494481,-72.9644229448867,154.78887568815,-1.968504,0.4921268,1.48473101864,514200,2016-09-15 17:51:22,10,15.151,156.75737968815,0,0.4921268,1.48473101864,162.5,0,0,1024,1024,1105,1024,164.4,-14.9,40,3.804,3.784,3.791,3.803,0,0,11,AutoTakeoff,
41.2944914088937,-72.9644231234577,155.11695968815,-1.64042,0.4921268,1.56987865916,514300,2016-09-15 17:51:22,10,15.151,156.75737968815,0,0.4921268,1.56987865916,162.7,0,0,1024,1024,1075,1024,164.3,-14.9,40,3.804,3.784,3.791,3.803,0,0,11,AutoTakeoff,
41.2944916816886,-72.9644235821529,155.44504368815,-1.312336,0.7158208,1.65572839944,514400,2016-09-15 17:51:22,10,15.151,156.75737968815,0,0.7158208,1.65572839944,162.9,0,0,1024,1024,1100,1024,164.3,-14.9,40,3.804,3.784,3.791,3.803,0,0,11,AutoTakeoff,
41.2944919585564,-72.9644237675638,155.77312768815,-0.984252,0.4921268,1.75426186716,514500,2016-09-15 17:51:23,10,15.151,156.75737968815,0,0.7158208,1.75426186716,163,0,0,1024,1024,1108,1024,164.2,-14.9,40,3.804,3.784,3.791,3.803,0,0,11,AutoTakeoff,
41.2944922067265,-72.9644240489178,155.77312768815,-0.984252,0.4921268,1.84413391728,514600,2016-09-15 17:51:23,10,15.151,156.75737968815,0,0.7158208,1.84413391728,163.1,0,0,1024,1024,1130,1024,164.2,-14.9,40,3.804,3.784,3.791,3.803,0,0,11,AutoTakeoff,
41.2944924700937,-72.9644242182692,156.10121168815,-0.656168,0.4921268,1.94132880228,514700,2016-09-15 17:51:23,10,15.151,156.75737968815,0,0.7158208,1.94132880228,163.3,0,0,1024,1024,1112,1024,164.2,-14.9,40,3.804,3.784,3.791,3.803,0,0,11,AutoTakeoff,
41.2944926112137,-72.9644244036695,156.42929568815,-0.328084,0.3131716,1.99521331844,514800,2016-09-15 17:51:23,10,15.183,156.75737968815,0,0.7158208,1.99521331844,163.3,0,0,1024,1024,1106,1024,164.2,-14.9,40,3.78,3.782,3.774,3.775,0,0,11,AutoTakeoff,
41.2944927475813,-72.9644245519834,156.75737968815,0,0.3131716,2.04767723088,514900,2016-09-15 17:51:23,10,15.183,156.75737968815,0,0.7158208,2.04767723088,163.1,0,0,1024,1024,1109,1024,164.1,-14.9,40,3.78,3.782,3.774,3.775,0,0,11,AutoTakeoff,
41.2944928385175,-72.9644248512619,156.75737968815,0,0.223694,2.08871725844,515000,2016-09-15 17:51:23,10,15.183,156.75737968815,0,0.7158208,2.08871725844,162.9,0,0,1024,1024,1129,1024,164.1,-14.9,40,3.78,3.782,3.774,3.775,0,0,11,AutoTakeoff,
41.2944928717023,-72.9644249827535,157.08546368815,0.328084,0.223694,2.10522316448,515100,2016-09-15 17:51:23,10,15.183,157.08546368815,0.328084,0.7158208,2.10522316448,162.6,0,0,1024,956,1094,1024,164.1,-14.9,40,3.78,3.782,3.774,3.775,0,0,11,AutoTakeoff,
41.2944928204884,-72.9644251710862,157.74163168815,0.984252,0,2.09423891216,515200,2016-09-15 17:51:23,10,15.183,157.74163168815,0.984252,0.7158208,2.10522316448,162.4,0,0,1024,977,1069,1024,164,-14.9,40,3.78,3.782,3.774,3.775,0,0,11,AutoTakeoff,
41.2944929408405,-72.9644253620578,158.39779968815,1.64042,0,2.14633865136,515400,2016-09-15 17:51:23,10,15.183,158.39779968815,1.64042,0.7158208,2.14633865136,162.3,0,0,1024,924,1080,1024,164,-14.9,40,3.78,3.782,3.774,3.775,0,0,11,AutoTakeoff,
41.294493003749,-72.9644254498682,158.39779968815,1.64042,0,2.173310437,515500,2016-09-15 17:51:23,10,15.183,158.39779968815,1.64042,0.7158208,2.173310437,162.3,0,0,1024,931,1063,1024,163.9,-14.9,40,3.78,3.782,3.774,3.775,0,0,11,AutoTakeoff,
41.2944931301909,-72.9644255660791,158.72588368815,1.968504,0.223694,2.22471135728,515600,2016-09-15 17:51:24,10,15.183,158.72588368815,1.968504,0.7158208,2.22471135728,162.4,0,0,1024,974,1082,1024,163.9,-14.9,40,3.78,3.782,3.774,3.775,0,0,11,AutoTakeoff,
41.2944932237988,-72.9644256081087,159.05396768815,2.296588,0.3131716,2.26047251328,515700,2016-09-15 17:51:24,10,15.183,159.05396768815,2.296588,0.7158208,2.26047251328,162.5,0,0,1024,949,1085,1024,163.9,-14.9,40,3.78,3.782,3.774,3.775,0,0,11,AutoTakeoff,
41.29449332758,-72.9644259753597,159.38205168815,2.624672,0.3131716,2.31944233144,515800,2016-09-15 17:51:24,10,15.183,159.38205168815,2.624672,0.7158208,2.31944233144,162.8,0,0,1024,1024,1096,1024,163.8,-14.9,40,3.78,3.782,3.774,3.775,0,0,11,AutoTakeoff,
41.2944935029773,-72.9644261797818,159.71013568815,2.952756,0.4921268,2.39524613964,515900,2016-09-15 17:51:24,10,14.851,159.71013568815,2.952756,0.7158208,2.39524613964,162.9,0,0,1024,1024,1036,1024,163.8,-14.9,40,3.705,3.715,3.703,3.705,0,0,11,AutoTakeoff,
41.2944936916399,-72.9644263768714,159.71013568815,2.952756,0.4921268,2.47577435744,516000,2016-09-15 17:51:24,10,14.851,159.71013568815,2.952756,0.7158208,2.47577435744,162.9,0,0,1024,1024,1218,1024,163.8,-14.9,40,3.705,3.715,3.703,3.705,0,0,11,AutoTakeoff,
41.2944939190857,-72.9644266015044,160.03821968815,3.28084,0.4921268,2.57246399308,516100,2016-09-15 17:51:24,10,14.851,160.03821968815,3.28084,0.7158208,2.57246399308,162.9,0,0,1024,1024,1251,1024,163.8,-14.9,40,3.705,3.715,3.703,3.705,0,0,11,AutoTakeoff,
41.2944942230906,-72.9644268435562,160.36630368815,3.608924,0.4921268,2.69775599184,516200,2016-09-15 17:51:24,10,14.851,160.36630368815,3.608924,0.7158208,2.69775599184,163,0,0,1024,1024,1123,1024,163.8,-14.9,40,3.705,3.715,3.703,3.705,0,0,11,AutoTakeoff,
41.2944944760851,-72.9644270882432,160.69438768815,3.937008,0.6263432,2.80589247824,516300,2016-09-15 17:51:24,10,14.851,160.69438768815,3.937008,0.7158208,2.80589247824,163.1,0,0,1024,1024,1083,1024,163.8,-14.9,40,3.705,3.715,3.703,3.705,0,0,11,AutoTakeoff,
41.294494540911,-72.9644273870584,160.69438768815,3.937008,0.6263432,2.8542979916,516400,2016-09-15 17:51:24,10,14.851,160.69438768815,3.937008,0.7158208,2.8542979916,163.1,0,0,1024,1024,1043,1024,163.8,-14.9,40,3.705,3.715,3.703,3.705,0,0,11,AutoTakeoff,
41.294494657175,-72.9644276276752,161.02247168815,4.265092,0.6263432,2.91644694372,516500,2016-09-15 17:51:25,10,14.851,161.02247168815,4.265092,0.7158208,2.91644694372,163,0,0,1024,1024,1081,1024,163.7,-14.9,40,3.705,3.715,3.703,3.705,0,0,11,AutoTakeoff,
41.294495263051,-72.9644281764964,161.35055568815,4.593176,0.3131716,3.17645679456,516700,2016-09-15 17:51:25,10,14.851,161.35055568815,4.593176,0.7158208,3.17645679456,163.2,0,0,1024,1024,1083,1024,163.7,-14.9,40,3.705,3.715,3.703,3.705,0,0,11,AutoTakeoff,
41.2944953904122,-72.9644282453289,161.67863968815,4.92126,0.3131716,3.22660443396,516800,2016-09-15 17:51:25,9,14.851,161.67863968815,4.92126,0.7158208,3.22660443396,163.3,0,0,1024,1024,1060,1024,163.7,-14.9,40,3.705,3.715,3.703,3.705,0,0,11,AutoTakeoff,
41.2944955317788,-72.9644284015105,161.67863968815,4.92126,0.3131716,3.2902888192,516900,2016-09-15 17:51:25,9,14.851,161.67863968815,4.92126,0.7158208,3.2902888192,163.4,0,0,1024,1024,1055,1024,163.7,-14.9,40,3.705,3.715,3.703,3.705,0,0,11,AutoTakeoff,
41.2944956822148,-72.9644285726078,162.00672368815,5.249344,0.3131716,3.3586943332,517000,2016-09-15 17:51:25,8,14.748,162.00672368815,5.249344,0.7158208,3.3586943332,163.7,0,0,1024,1024,1024,1083,163.7,-14.9,40,3.681,3.693,3.681,3.686,0,0,11,AutoTakeoff,
41.2944958609925,-72.9644286374608,162.33480768815,5.577428,0,3.425853128,517100,2016-09-15 17:51:25,8,14.748,162.33480768815,5.577428,0.7158208,3.425853128,164,0,0,1024,1024,1024,1060,163.9,-14.9,40,3.681,3.693,3.681,3.686,0,0,11,AutoTakeoff,
41.2944957005105,-72.9644289438795,162.33480768815,5.577428,0,3.4044292428,517200,2016-09-15 17:51:25,9,14.748,162.33480768815,5.577428,0.7158208,3.425853128,164.3,0,0,1024,1024,1024,1024,164,-14.9,40,3.681,3.693,3.681,3.686,0,0,11,AutoTakeoff,
41.2944957238343,-72.9644290376589,162.66289168815,5.905512,0,3.422572288,517300,2016-09-15 17:51:25,9,14.748,162.66289168815,5.905512,0.7158208,3.425853128,164.6,0,0,1024,1024,1024,1024,164,-14.9,40,3.681,3.693,3.681,3.686,0,0,11,AutoTakeoff,
41.29449550447,-72.9644294264311,162.66289168815,5.905512,0,3.3952428908,517400,2016-09-15 17:51:25,9,14.748,162.66289168815,5.905512,0.7158208,3.425853128,164.6,0,0,1024,1024,1024,1035,164,-14.9,40,3.681,3.693,3.681,3.686,0,0,11,AutoTakeoff,
41.2944955205675,-72.9644296233861,162.99097568815,6.233596,0,3.4246392172,517500,2016-09-15 17:51:26,9,14.748,162.99097568815,6.233596,0.7158208,3.425853128,164.6,0,0,1024,1024,1024,1067,164,-14.9,40,3.681,3.693,3.681,3.686,0,0,11,AutoTakeoff,
41.2944953111056,-72.9644295267607,163.31905968815,6.56168,0,3.3445211044,517700,2016-09-15 17:51:26,10,14.748,163.31905968815,6.56168,0.7158208,3.425853128,164.4,0,0,1024,1024,1024,1069,164,-14.9,40,3.681,3.693,3.681,3.686,0,0,11,AutoTakeoff,
41.2944953111056,-72.9644295267607,163.31905968815,6.56168,0,3.3445211044,517700,2016-09-15 17:51:26,10,14.748,163.31905968815,6.56168,0.7158208,3.425853128,164.4,0,0,1024,1024,1024,1067,164.1,-14.9,40,3.681,3.693,3.681,3.686,0,0,11,AutoTakeoff,
41.294495150707,-72.9644296726485,163.31905968815,6.56168,0,3.3112533868,517800,2016-09-15 17:51:26,10,14.748,163.31905968815,6.56168,0.7158208,3.425853128,164.4,0,0,1024,1024,1024,1065,164.2,-14.9,40,3.681,3.693,3.681,3.686,0,0,11,AutoTakeoff,
41.2944948506806,-72.964429765639,163.64714368815,6.889764,0.223694,3.22769695368,518000,2016-09-15 17:51:26,10,14.748,163.64714368815,6.889764,0.7158208,3.425853128,164.3,0,0,1024,1024,1024,1024,164.4,-14.9,40,3.681,3.693,3.681,3.686,0,0,11,AutoTakeoff,
41.294494277335,-72.9644294302557,163.97522768815,7.217848,0.223694,3.00045613276,518200,2016-09-15 17:51:26,10,14.713,163.97522768815,7.217848,0.7158208,3.425853128,163.8,0,0,1024,1024,1024,1024,164.4,-14.9,40,3.664,3.682,3.669,3.671,0,0,6,GPS_Atti,
41.2944941342581,-72.9644293652613,164.30331168815,7.545932,0.223694,2.94635180032,518300,2016-09-15 17:51:26,10,14.713,164.30331168815,7.545932,0.7158208,3.425853128,163.7,0,0,1024,1024,1024,1024,164.4,-14.9,40,3.664,3.682,3.669,3.671,0,0,6,GPS_Atti,
41.2944937196397,-72.9644291454562,164.30331168815,7.545932,0.223694,2.78539378992,518400,2016-09-15 17:51:26,10,14.713,164.30331168815,7.545932,0.7158208,3.425853128,163.5,0,0,1024,1024,1024,1024,164.3,-14.8,40,3.664,3.682,3.669,3.671,0,0,6,GPS_Atti,
41.2944937196397,-72.9644291454562,164.30331168815,7.545932,0.223694,2.78539378992,518400,2016-09-15 17:51:27,10,14.713,164.30331168815,7.545932,0.7158208,3.425853128,163.5,0,0,1024,1024,1024,1024,164.3,-14.9,40,3.664,3.682,3.669,3.671,0,0,6,GPS_Atti,
41.294493172877,-72.9644289878681,164.30331168815,7.545932,0.223694,2.59257226144,518600,2016-09-15 17:51:27,10,14.713,164.30331168815,7.545932,0.7158208,3.425853128,163.2,0,0,1024,1024,1024,1024,164.3,-14.9,40,3.664,3.682,3.669,3.671,0,0,6,GPS_Atti,
41.2944929518956,-72.9644288018519,164.63139568815,7.874016,0.223694,2.49717527676,518700,2016-09-15 17:51:27,10,14.713,164.63139568815,7.874016,0.7158208,3.425853128,163.3,0,0,1024,1212,1024,1024,164.3,-14.9,40,3.664,3.682,3.669,3.671,0,0,6,GPS_Atti,
41.2944920974378,-72.9644288223747,164.63139568815,7.874016,0.223694,2.24249679092,518800,2016-09-15 17:51:27,10,14.713,164.63139568815,7.874016,0.7158208,3.425853128,163.4,0,0,1024,1239,1024,1024,164.3,-14.9,40,3.664,3.682,3.669,3.671,0,0,6,GPS_Atti,
41.2944920114099,-72.9644287663331,164.63139568815,7.874016,0,2.20812999192,518900,2016-09-15 17:51:27,10,14.713,164.63139568815,7.874016,0.7158208,3.425853128,163.5,0,0,1024,1218,1024,1024,164.3,-14.9,40,3.664,3.682,3.669,3.671,0,0,6,GPS_Atti,
41.2944916679358,-72.9644287719571,164.63139568815,7.874016,0.223694,2.10981305964,519000,2016-09-15 17:51:27,10,14.713,164.63139568815,7.874016,0.7158208,3.425853128,163.7,0,0,1024,1211,1024,1024,164.3,-14.9,40,3.664,3.682,3.669,3.671,0,0,6,GPS_Atti,
41.2944915601638,-72.9644289760457,164.63139568815,7.874016,0.4921268,2.11516082884,519100,2016-09-15 17:51:27,10,14.713,164.63139568815,7.874016,0.7158208,3.425853128,163.9,0,0,1024,1188,1024,1024,164.3,-14.9,40,3.664,3.682,3.669,3.671,0,0,6,GPS_Atti,
41.2944923608999,-72.9644291565673,164.63139568815,7.874016,0.7158208,2.37429797624,519200,2016-09-15 17:51:27,10,14.693,164.63139568815,7.874016,0.7158208,3.425853128,164,0,0,1024,1175,1024,1024,164.3,-14.9,40,3.67,3.681,3.668,3.672,0,0,6,GPS_Atti,
41.2944922552912,-72.9644294982548,164.30331168815,7.545932,1.1408394,2.40162081176,519300,2016-09-15 17:51:27,10,14.693,164.63139568815,7.874016,1.1408394,3.425853128,164.3,0,0,1024,1024,1024,1024,164.3,-14.9,40,3.67,3.681,3.668,3.672,0,0,6,GPS_Atti,
41.2944924248026,-72.964430181853,164.30331168815,7.545932,0.9171454,2.57013787752,519400,2016-09-15 17:51:27,10,14.693,164.63139568815,7.874016,1.1408394,3.425853128,164.4,0,0,1024,1024,1024,1032,164.3,-14.9,40,3.67,3.681,3.668,3.672,0,0,6,GPS_Atti,
41.2944922742501,-72.9644308346301,164.63139568815,7.874016,1.1408394,2.65317921876,519500,2016-09-15 17:51:28,10,14.693,164.63139568815,7.874016,1.1408394,3.425853128,164.6,0,0,1024,1024,1024,1143,164.3,-14.9,40,3.67,3.681,3.668,3.672,0,0,6,GPS_Atti,
41.2944923677613,-72.9644313548154,164.63139568815,7.874016,1.1408394,2.77948171624,519600,2016-09-15 17:51:28,10,14.693,164.63139568815,7.874016,1.1408394,3.425853128,164.6,0,0,1024,1024,1024,1230,164.9,-14.9,40,3.67,3.681,3.668,3.672,0,0,6,GPS_Atti,
41.2944922492883,-72.9644319652365,164.63139568815,7.874016,0.9171454,2.87557751984,519700,2016-09-15 17:51:28,10,14.693,164.63139568815,7.874016,1.1408394,3.425853128,165.4,0,0,1024,1024,1024,1230,166.2,-14.9,40,3.67,3.681,3.668,3.672,0,0,6,GPS_Atti,
41.2944923692473,-72.964432882228,164.63139568815,7.874016,0.894776,3.0983104666,519800,2016-09-15 17:51:28,10,14.693,164.63139568815,7.874016,1.1408394,3.425853128,167.5,0,0,1024,1024,1024,1235,167.6,-14.9,40,3.67,3.681,3.668,3.672,0,0,6,GPS_Atti,
41.2944922450677,-72.9644332949084,164.63139568815,7.874016,0.894776,3.16149616416,519900,2016-09-15 17:51:28,10,14.693,164.63139568815,7.874016,1.1408394,3.425853128,170.4,0,0,1024,1024,1024,1213,169.1,-14.9,40,3.67,3.681,3.668,3.672,0,0,6,GPS_Atti,
41.294492293674,-72.9644340465446,164.63139568815,7.874016,0.671082,3.3403216292,520000,2016-09-15 17:51:28,10,14.693,164.63139568815,7.874016,1.1408394,3.425853128,173.4,0,0,1024,1024,1024,1212,170.9,-14.9,40,3.67,3.681,3.668,3.672,0,0,6,GPS_Atti,
41.2944922528691,-72.9644344935576,164.63139568815,7.874016,0.671082,3.4343176952,520100,2016-09-15 17:51:28,10,14.693,164.63139568815,7.874016,1.1408394,3.4343176952,176.2,0,0,1024,1024,1024,1227,173.2,-14.9,40,3.67,3.681,3.668,3.672,0,0,6,GPS_Atti,
41.2944923103076,-72.9644353333052,164.63139568815,7.874016,0.671082,3.6407153396,520200,2016-09-15 17:51:28,10,14.735,164.63139568815,7.874016,1.1408394,3.6407153396,178.7,0,0,1024,1024,1024,1249,175.6,-14.9,40,3.668,3.691,3.681,3.684,0,0,6,GPS_Atti,
41.2944926003142,-72.9644359740708,164.63139568815,7.874016,0.447388,3.8457678396,520400,2016-09-15 17:51:28,10,14.735,164.63139568815,7.874016,1.1408394,3.8457678396,184.5,0,0,1024,1024,1024,1248,178.4,-14.9,40,3.668,3.691,3.681,3.684,0,0,6,GPS_Atti,
41.2944926177358,-72.9644362848583,164.63139568815,7.874016,0.447388,3.9221786032,520500,2016-09-15 17:51:28,10,14.735,164.63139568815,7.874016,1.1408394,3.9221786032,187.9,0,0,1096,1024,1024,1234,181.4,-14.9,40,3.668,3.691,3.681,3.684,0,0,6,GPS_Atti,
41.2944929807876,-72.9644368857041,164.63139568815,7.874016,0.447388,4.1314633868,520600,2016-09-15 17:51:29,10,14.735,164.63139568815,7.874016,1.1408394,4.1314633868,190.9,0,0,1142,1024,1024,1144,184.3,-14.9,40,3.668,3.691,3.681,3.684,0,0,6,GPS_Atti,
41.2944929985773,-72.9644371708297,164.30331168815,7.545932,0.447388,4.2019686384,520700,2016-09-15 17:51:29,10,14.735,164.63139568815,7.874016,1.1408394,4.2019686384,193.4,0,0,1149,1024,1024,1098,186.8,-14.9,40,3.668,3.691,3.681,3.684,0,0,6,GPS_Atti,
41.2944929910014,-72.9644373943969,164.30331168815,7.545932,0.447388,4.2535106348,520800,2016-09-15 17:51:29,10,14.735,164.63139568815,7.874016,1.1408394,4.2535106348,194.8,0,0,1169,1024,1024,1055,188.9,-14.9,40,3.668,3.691,3.681,3.684,0,0,6,GPS_Atti,
41.2944928939142,-72.9644379005018,164.30331168815,7.545932,0.4921268,4.3569883284,520900,2016-09-15 17:51:29,10,14.735,164.63139568815,7.874016,1.1408394,4.3569883284,195.4,0,0,1193,1024,1024,1024,190.4,-14.9,40,3.668,3.691,3.681,3.684,0,0,6,GPS_Atti,
41.2944927081395,-72.9644382759409,164.30331168815,7.545932,0.8052984,4.4159778316,521000,2016-09-15 17:51:29,9,14.735,164.63139568815,7.874016,1.1408394,4.4159778316,195.6,0,0,1185,1024,1024,1024,191.4,-14.9,40,3.668,3.691,3.681,3.684,0,0,6,GPS_Atti,
41.2944924746042,-72.9644387009215,164.30331168815,7.545932,0.8052984,4.4822507996,521100,2016-09-15 17:51:29,9,14.735,164.63139568815,7.874016,1.1408394,4.4822507996,195.5,0,0,1170,1024,1024,1024,192.1,-14.9,40,3.668,3.691,3.681,3.684,0,0,6,GPS_Atti,
41.2944920835476,-72.9644389741442,164.30331168815,7.545932,1.11847,4.490813792,521200,2016-09-15 17:51:29,9,14.735,164.63139568815,7.874016,1.1408394,4.490813792,195.3,0,0,1174,1024,1024,1024,192.5,-14.9,40,3.668,3.691,3.681,3.684,0,0,6,GPS_Atti,
41.2944917009045,-72.964439477975,164.30331168815,7.545932,1.2750558,4.565124818,521300,2016-09-15 17:51:29,9,14.669,164.63139568815,7.874016,1.2750558,4.565124818,195,0,0,1150,1024,1024,1024,192.8,-14.9,40,3.662,3.675,3.66,3.668,0,0,6,GPS_Atti,
41.2944915641914,-72.9644399942187,164.30331168815,7.545932,1.2750558,4.6798557928,521400,2016-09-15 17:51:29,10,14.669,164.63139568815,7.874016,1.2750558,4.6798557928,194.7,0,0,1083,1024,1024,1024,193,-14.9,40,3.662,3.675,3.66,3.668,0,0,6,GPS_Atti,
41.2944911115141,-72.9644404740709,164.30331168815,7.545932,1.4316416,4.7507875536,521500,2016-09-15 17:51:30,10,14.669,164.63139568815,7.874016,1.4316416,4.7507875536,194.3,0,0,1024,1024,1024,1024,193,-14.9,40,3.662,3.675,3.66,3.668,0,0,6,GPS_Atti,
41.2944908500129,-72.9644412280063,164.30331168815,7.545932,1.4316416,4.9210631496,521600,2016-09-15 17:51:30,10,14.669,164.63139568815,7.874016,1.4316416,4.9210631496,194,0,0,1029,1024,1024,1024,193,-14.9,40,3.662,3.675,3.66,3.668,0,0,6,GPS_Atti,
41.2944903646803,-72.9644418313811,164.63139568815,7.874016,1.5882274,5.0362206336,521700,2016-09-15 17:51:30,10,14.669,164.63139568815,7.874016,1.5882274,5.0362206336,193.6,0,0,1029,1024,1024,1024,193.1,-14.9,40,3.662,3.675,3.66,3.668,0,0,6,GPS_Atti,
41.2944899134569,-72.9644425938525,164.63139568815,7.874016,1.5882274,5.2053479356,521800,2016-09-15 17:51:30,10,14.669,164.63139568815,7.874016,1.5882274,5.2053479356,193.2,0,0,1024,1024,1024,1024,193,-14.9,40,3.662,3.675,3.66,3.668,0,0,6,GPS_Atti,
41.2944894302665,-72.9644432005627,164.63139568815,7.874016,1.4316416,5.3383531892,521900,2016-09-15 17:51:30,10,14.669,164.63139568815,7.874016,1.5882274,5.3383531892,192.9,0,0,1030,1024,1024,1024,193.1,-14.9,40,3.662,3.675,3.66,3.668,0,0,6,GPS_Atti,
41.2944888310358,-72.9644442343597,164.63139568815,7.874016,1.4316416,5.5902888928,522000,2016-09-15 17:51:30,10,14.669,164.63139568815,7.874016,1.5882274,5.5902888928,192.7,0,0,1030,1024,1024,1024,193.1,-14.9,40,3.662,3.675,3.66,3.668,0,0,6,GPS_Atti,
41.2944883241569,-72.9644449542112,164.63139568815,7.874016,1.2750558,5.769849266,522100,2016-09-15 17:51:30,10,14.669,164.63139568815,7.874016,1.5882274,5.769849266,192.5,0,0,1024,1024,1024,1024,193.1,-14.9,40,3.662,3.675,3.66,3.668,0,0,6,GPS_Atti,
41.2944878865048,-72.9644457189352,164.63139568815,7.874016,1.2750558,5.9696196136,522200,2016-09-15 17:51:30,10,14.669,164.63139568815,7.874016,1.5882274,5.9696196136,192.4,0,0,1024,1024,1024,1024,193,-14.9,40,3.662,3.675,3.66,3.668,0,0,6,GPS_Atti,
41.2944875574879,-72.9644462451687,164.63139568815,7.874016,1.11847,6.1096458648,522300,2016-09-15 17:51:30,10,14.669,164.63139568815,7.874016,1.5882274,6.1096458648,192.3,0,0,1024,1024,1024,1024,193.1,-14.9,40,3.662,3.675,3.66,3.668,0,0,6,GPS_Atti,
41.2944869111706,-72.9644471653068,164.63139568815,7.874016,0.9395148,6.3606957416,522400,2016-09-15 17:51:30,10,14.669,164.63139568815,7.874016,1.5882274,6.3606957416,192.3,0,0,1024,1024,1024,1024,193,-14.9,40,3.662,3.675,3.66,3.668,0,0,6,GPS_Atti,
41.294486439796,-72.964447975664,164.63139568815,7.874016,0.6263432,6.5873689772,522600,2016-09-15 17:51:31,10,14.669,164.63139568815,7.874016,1.5882274,6.5873689772,192.4,0,0,1024,1024,1024,1024,193,-14.9,40,3.662,3.675,3.66,3.668,0,0,6,GPS_Atti,
41.2944859385731,-72.9644483971271,164.30331168815,7.545932,0.4921268,6.7124017896,522700,2016-09-15 17:51:31,10,14.669,164.63139568815,7.874016,1.5882274,6.7124017896,192.6,0,0,1024,1024,1024,1024,193,-14.9,40,3.662,3.675,3.66,3.668,0,0,6,GPS_Atti,
41.2944859766605,-72.9644488838391,164.30331168815,7.545932,0.6263432,6.84465245,522800,2016-09-15 17:51:31,10,14.669,164.63139568815,7.874016,1.5882274,6.84465245,192.7,0,0,1024,1046,1024,1024,193,-14.9,40,3.662,3.675,3.66,3.668,0,0,6,GPS_Atti,
41.2944858185622,-72.9644490908425,164.30331168815,7.545932,0.3131716,6.9051183312,522900,2016-09-15 17:51:31,10,14.669,164.63139568815,7.874016,1.5882274,6.9051183312,192.8,0,0,1024,1024,1024,1024,193.1,-14.9,40,3.662,3.675,3.66,3.668,0,0,6,GPS_Atti,
41.2944854775574,-72.9644494761058,164.30331168815,7.545932,0.3131716,7.02017739,523000,2016-09-15 17:51:31,10,14.669,164.63139568815,7.874016,1.5882274,7.02017739,192.8,0,0,1024,1024,1024,1024,193.1,-14.9,40,3.662,3.675,3.66,3.668,0,0,6,GPS_Atti,
41.2944853373145,-72.9644496080719,164.30331168815,7.545932,0.3131716,7.060859806,523100,2016-09-15 17:51:31,10,14.669,164.63139568815,7.874016,1.5882274,7.060859806,192.8,0,0,1024,1024,1024,1024,193.1,-14.9,40,3.662,3.675,3.66,3.668,0,0,6,GPS_Atti,
41.2944849303314,-72.964449932789,164.30331168815,7.545932,0.3131716,7.1647640088,523200,2016-09-15 17:51:31,10,14.669,164.63139568815,7.874016,1.5882274,7.1647640088,192.8,0,0,1024,1024,1024,1024,193,-14.9,40,3.662,3.675,3.66,3.668,0,0,6,GPS_Atti,
41.2944845401756,-72.9644501273875,164.30331168815,7.545932,0.223694,7.2351380268,523300,2016-09-15 17:51:31,10,14.669,164.63139568815,7.874016,1.5882274,7.2351380268,192.9,0,0,1024,1024,1024,1024,193.1,-14.9,40,3.662,3.675,3.66,3.668,0,0,6,GPS_Atti,
41.2944844827829,-72.9644500687783,164.30331168815,7.545932,0.223694,7.2219818584,523400,2016-09-15 17:51:31,10,14.64,164.63139568815,7.874016,1.5882274,7.2351380268,193,0,0,1024,1024,1024,1024,193.1,-14.9,40,3.659,3.669,3.657,3.662,0,0,6,GPS_Atti,
41.294484358104,-72.9644501060684,164.30331168815,7.545932,0.223694,7.2383860584,523500,2016-09-15 17:51:32,10,14.64,164.63139568815,7.874016,1.5882274,7.2383860584,193,0,0,1024,1024,1024,1024,193.1,-14.9,40,3.659,3.669,3.657,3.662,0,0,6,GPS_Atti,
41.2944846100371,-72.9644500869102,164.30331168815,7.545932,0,7.220800756,523600,2016-09-15 17:51:32,10,14.64,164.63139568815,7.874016,1.5882274,7.2383860584,193.2,0,0,1024,1024,1024,1024,193.1,-14.9,40,3.659,3.669,3.657,3.662,0,0,6,GPS_Atti,
41.2944843578238,-72.9644500189322,164.30331168815,7.545932,0,7.2147640104,523700,2016-09-15 17:51:32,10,14.64,164.63139568815,7.874016,1.5882274,7.2383860584,193.2,0,0,1024,1024,1024,1024,193.1,-14.9,40,3.659,3.669,3.657,3.662,0,0,6,GPS_Atti,
41.2944846374246,-72.9644498949812,164.30331168815,7.545932,0,7.1673558724,523800,2016-09-15 17:51:32,10,14.64,164.63139568815,7.874016,1.5882274,7.2383860584,193.2,0,0,1024,1024,1024,1024,193.1,-14.9,40,3.659,3.669,3.657,3.662,0,0,6,GPS_Atti,
41.2944846102065,-72.9644498629296,164.30331168815,7.545932,0,7.1599083656,523900,2016-09-15 17:51:32,10,14.64,164.63139568815,7.874016,1.5882274,7.2383860584,193.1,0,0,1024,1024,1024,1024,193.1,-14.9,40,3.659,3.669,3.657,3.662,0,0,6,GPS_Atti,
41.2944843718572,-72.9644497644232,164.30331168815,7.545932,0,7.1449805436,524000,2016-09-15 17:51:32,10,14.64,164.63139568815,7.874016,1.5882274,7.2383860584,193,0,0,1024,1024,1024,1024,193.1,-14.9,40,3.659,3.669,3.657,3.662,0,0,6,GPS_Atti,
41.2944844137383,-72.964449758157,164.30331168815,7.545932,0,7.1411091524,524100,2016-09-15 17:51:32,10,14.64,164.63139568815,7.874016,1.5882274,7.2383860584,192.9,0,0,1024,1024,1024,1024,193.1,-14.9,40,3.659,3.669,3.657,3.662,0,0,6,GPS_Atti,
41.2944841241365,-72.9644498808312,164.30331168815,7.545932,0,7.1898952432,524200,2016-09-15 17:51:32,10,14.64,164.63139568815,7.874016,1.5882274,7.2383860584,192.9,0,0,1024,1024,1024,1024,193.1,-14.9,40,3.659,3.669,3.657,3.662,0,0,6,GPS_Atti,
41.2944840468752,-72.9644498426066,164.30331168815,7.545932,0,7.1839241144,524300,2016-09-15 17:51:32,10,14.64,164.63139568815,7.874016,1.5882274,7.2383860584,192.9,0,0,1024,1024,1024,1024,193.1,-14.9,40,3.659,3.669,3.657,3.662,0,0,6,GPS_Atti,
41.2944833204841,-72.9644499079484,164.30331168815,7.545932,0,7.248031728,524400,2016-09-15 17:51:32,10,14.648,164.63139568815,7.874016,1.5882274,7.248031728,192.9,0,0,1024,1024,1024,1024,193.1,-14.9,40,3.659,3.67,3.657,3.661,0,0,6,GPS_Atti,
41.2944825927925,-72.964449953033,164.30331168815,7.545932,0,7.315945116,524600,2016-09-15 17:51:33,10,14.648,164.63139568815,7.874016,1.5882274,7.315945116,193.2,0,0,1024,1024,1024,1024,193.1,-14.9,40,3.659,3.67,3.657,3.661,0,0,6,GPS_Atti,
41.2944826400381,-72.9644499751487,164.30331168815,7.545932,0,7.3179464284,524700,2016-09-15 17:51:33,10,14.648,164.63139568815,7.874016,1.5882274,7.3179464284,193.4,0,0,1024,1024,1024,1024,193.1,-14.9,40,3.659,3.67,3.657,3.661,0,0,6,GPS_Atti,
41.2944819337528,-72.9644502410787,164.30331168815,7.545932,0,7.4506564064,524800,2016-09-15 17:51:33,10,14.648,164.63139568815,7.874016,1.5882274,7.4506564064,193.7,0,0,1024,1024,1024,1024,193.1,-14.9,40,3.659,3.67,3.657,3.661,0,0,6,GPS_Atti,
41.2944819339237,-72.9644501478585,164.30331168815,7.545932,0,7.4259188728,524900,2016-09-15 17:51:33,10,14.648,164.63139568815,7.874016,1.5882274,7.4506564064,194,0,0,1024,1024,1024,1024,193.1,-14.9,40,3.659,3.67,3.657,3.661,0,0,6,GPS_Atti,
41.2944814239671,-72.9644502517656,164.30331168815,7.545932,0.223694,7.5031498464,525000,2016-09-15 17:51:33,10,14.648,164.63139568815,7.874016,1.5882274,7.5031498464,194.1,0,0,1024,1024,1024,1024,193.1,-14.9,40,3.659,3.67,3.657,3.661,0,0,6,GPS_Atti,
41.2944815015337,-72.9644502185196,164.30331168815,7.545932,0.3131716,7.486548796,525100,2016-09-15 17:51:33,10,14.648,164.63139568815,7.874016,1.5882274,7.5031498464,194.2,0,0,1024,1024,1024,1058,193.1,-14.9,40,3.659,3.67,3.657,3.661,0,0,6,GPS_Atti,
41.2944814049556,-72.9644501311123,164.30331168815,7.545932,0.3131716,7.4733270108,525200,2016-09-15 17:51:33,10,14.648,164.63139568815,7.874016,1.5882274,7.5031498464,194.2,0,0,1024,1024,1024,1101,193.2,-14.9,40,3.659,3.67,3.657,3.661,0,0,6,GPS_Atti,
41.2944815418623,-72.9644499655819,164.30331168815,7.545932,0.3131716,7.415846694,525300,2016-09-15 17:51:33,10,14.648,164.63139568815,7.874016,1.5882274,7.5031498464,194.8,0,0,1024,1024,1024,1122,193.6,-14.9,40,3.659,3.67,3.657,3.661,0,0,6,GPS_Atti,
41.2944814837104,-72.9644499915884,164.30331168815,7.545932,0.3131716,7.4285763532,525400,2016-09-15 17:51:33,10,14.648,164.63139568815,7.874016,1.5882274,7.5031498464,195.8,0,0,1024,1024,1024,1141,194.1,-14.9,40,3.659,3.67,3.657,3.661,0,0,6,GPS_Atti,
41.2944816668737,-72.9644497628432,164.30331168815,7.545932,0.3131716,7.34990181,525500,2016-09-15 17:51:34,10,14.632,164.63139568815,7.874016,1.5882274,7.5031498464,197.1,0,0,1024,1024,1024,1118,194.8,-14.9,40,3.654,3.666,3.653,3.66,0,0,6,GPS_Atti,
41.2944817262469,-72.9644497862339,164.30331168815,7.545932,0.3131716,7.3501970856,525600,2016-09-15 17:51:34,10,14.632,164.63139568815,7.874016,1.5882274,7.5031498464,198.5,0,0,1024,1024,1024,1102,195.4,-14.9,40,3.654,3.666,3.653,3.66,0,0,6,GPS_Atti,
41.2944819004637,-72.9644496071607,164.30331168815,7.545932,0.3131716,7.2859582384,525700,2016-09-15 17:51:34,10,14.632,164.63139568815,7.874016,1.5882274,7.5031498464,199.7,0,0,1024,1024,1024,1058,196,-14.9,40,3.654,3.666,3.653,3.66,0,0,6,GPS_Atti,
41.2944819511199,-72.9644494469072,164.30331168815,7.545932,0.3131716,7.2387141424,525800,2016-09-15 17:51:34,10,14.632,164.63139568815,7.874016,1.5882274,7.5031498464,200.6,0,0,1024,1024,1024,1024,197,-14.9,40,3.654,3.666,3.653,3.66,0,0,6,GPS_Atti,
41.2944821034352,-72.9644492635397,164.30331168815,7.545932,0.3131716,7.1757548228,525900,2016-09-15 17:51:34,10,14.632,164.63139568815,7.874016,1.5882274,7.5031498464,200.8,0,0,1024,1024,1024,1024,197.3,-14.9,40,3.654,3.666,3.653,3.66,0,0,6,GPS_Atti,
41.2944821600925,-72.9644491654722,164.30331168815,7.545932,0.3131716,7.1444884176,526000,2016-09-15 17:51:34,10,14.632,164.63139568815,7.874016,1.5882274,7.5031498464,200.6,0,0,1024,1024,1024,1024,197.6,-14.9,40,3.654,3.666,3.653,3.66,0,0,6,GPS_Atti,
41.2944822579862,-72.9644488809544,164.30331168815,7.545932,0.3131716,7.0599739792,526100,2016-09-15 17:51:34,10,14.632,164.63139568815,7.874016,1.5882274,7.5031498464,200.1,0,0,1024,1024,1024,1024,197.7,-14.9,40,3.654,3.666,3.653,3.66,0,0,6,GPS_Atti,
41.2944823861682,-72.9644488254847,164.30331168815,7.545932,0.3131716,7.0335632172,526200,2016-09-15 17:51:34,10,14.632,164.63139568815,7.874016,1.5882274,7.5031498464,199.6,0,0,1024,1024,1024,1024,197.7,-14.9,40,3.654,3.666,3.653,3.66,0,0,6,GPS_Atti,
41.2944825325656,-72.964448654252,164.30331168815,7.545932,0.3131716,6.9750002232,526300,2016-09-15 17:51:34,10,14.632,164.63139568815,7.874016,1.5882274,7.5031498464,198.9,0,0,1024,1024,1024,1024,197.9,-14.9,40,3.654,3.666,3.653,3.66,0,0,6,GPS_Atti,
41.2944825918222,-72.964448560503,164.30331168815,7.545932,0.3131716,6.9448493036,526400,2016-09-15 17:51:34,10,14.632,164.63139568815,7.874016,1.5882274,7.5031498464,198.3,0,0,1024,1024,1024,1024,197.9,-14.9,40,3.654,3.666,3.653,3.66,0,0,6,GPS_Atti,
41.294482737907,-72.9644484516065,164.30331168815,7.545932,0.223694,6.9032482524,526500,2016-09-15 17:51:35,10,14.633,164.63139568815,7.874016,1.5882274,7.5031498464,197.8,0,0,1024,1024,1024,1024,197.9,-14.9,40,3.654,3.663,3.65,3.655,0,0,6,GPS_Atti,
41.2944829207501,-72.9644483938439,164.30331168815,7.545932,0.223694,6.87253959,526700,2016-09-15 17:51:35,10,14.633,164.63139568815,7.874016,1.5882274,7.5031498464,196.9,0,0,1024,1024,1024,1024,197.9,-14.9,40,3.654,3.663,3.65,3.655,0,0,6,GPS_Atti,
41.2944830774542,-72.9644485440465,164.63139568815,7.874016,0.223694,6.9001314544,526800,2016-09-15 17:51:35,10,14.633,164.63139568815,7.874016,1.5882274,7.5031498464,196.7,0,0,1024,1024,1024,1024,197.8,-14.9,40,3.654,3.663,3.65,3.655,0,0,6,GPS_Atti,
41.2944832140089,-72.964448521841,164.63139568815,7.874016,0.223694,6.8836288292,526900,2016-09-15 17:51:35,10,14.633,164.63139568815,7.874016,1.5882274,7.5031498464,196.5,0,0,1024,1024,1024,1024,197.8,-14.9,40,3.654,3.663,3.65,3.655,0,0,6,GPS_Atti,
41.2944833718901,-72.964448529317,164.63139568815,7.874016,0.223694,6.8738191176,527000,2016-09-15 17:51:35,10,14.633,164.63139568815,7.874016,1.5882274,7.5031498464,196.4,0,0,1024,1024,1024,1024,197.8,-14.9,40,3.654,3.663,3.65,3.655,0,0,6,GPS_Atti,
41.2944835019834,-72.9644484068946,164.63139568815,7.874016,0.223694,6.8315618984,527100,2016-09-15 17:51:35,10,14.633,164.63139568815,7.874016,1.5882274,7.5031498464,196.4,0,0,1024,1024,1024,1024,197.7,-14.9,40,3.654,3.663,3.65,3.655,0,0,6,GPS_Atti,
41.2944838718327,-72.9644484333047,164.63139568815,7.874016,0.223694,6.813648512,527300,2016-09-15 17:51:35,10,14.633,164.63139568815,7.874016,1.5882274,7.5031498464,196.6,0,0,1024,1024,1024,1024,197.7,-14.9,40,3.654,3.663,3.65,3.655,0,0,6,GPS_Atti,
41.294484162303,-72.9644485364655,164.63139568815,7.874016,0.223694,6.8237534992,527500,2016-09-15 17:51:36,10,14.633,164.63139568815,7.874016,1.5882274,7.5031498464,196.7,0,0,1024,1024,1024,1024,197.7,-14.9,40,3.654,3.663,3.65,3.655,0,0,6,GPS_Atti,
41.2944843598585,-72.9644487321316,164.63139568815,7.874016,0.223694,6.8656170176,527600,2016-09-15 17:51:36,10,14.633,164.63139568815,7.874016,1.5882274,7.5031498464,196.7,0,0,1024,1024,1024,1024,197.7,-14.9,40,3.654,3.663,3.65,3.655,0,0,6,GPS_Atti,
41.2944845430253,-72.9644487488537,164.63139568815,7.874016,0.223694,6.860564524,527700,2016-09-15 17:51:36,10,14.633,164.63139568815,7.874016,1.5882274,7.5031498464,196.8,0,0,1024,1024,1024,1024,197.6,-14.9,40,3.654,3.663,3.65,3.655,0,0,6,GPS_Atti,
41.2944847335978,-72.9644488960608,164.63139568815,7.874016,0.223694,6.8912731864,527800,2016-09-15 17:51:36,10,14.606,164.63139568815,7.874016,1.5882274,7.5031498464,196.9,0,0,1024,1024,1024,1024,197.6,-14.9,40,3.647,3.659,3.647,3.653,0,0,6,GPS_Atti,
41.294485210076,-72.9644492447383,164.63139568815,7.874016,0,6.9662731888,528000,2016-09-15 17:51:36,10,14.606,164.63139568815,7.874016,1.5882274,7.5031498464,197,1,0,1024,1024,1024,1024,197.6,-14.9,40,3.647,3.659,3.647,3.653,0,0,6,GPS_Atti,
41.2944852918016,-72.9644492820022,164.63139568815,7.874016,0,6.9734582284,528100,2016-09-15 17:51:36,10,14.606,164.63139568815,7.874016,1.5882274,7.5031498464,197.1,0,0,1024,1024,1024,1024,197.6,-14.9,40,3.647,3.659,3.647,3.653,0,0,6,GPS_Atti,
41.2944856307533,-72.964449472658,164.63139568815,7.874016,0,7.014599962,528200,2016-09-15 17:51:36,10,14.606,164.63139568815,7.874016,1.5882274,7.5031498464,197.1,0,0,1024,1024,1024,1024,197.6,-14.9,40,3.647,3.659,3.647,3.653,0,0,6,GPS_Atti,
41.2944857544889,-72.9644495266632,164.63139568815,7.874016,0,7.0259516684,528300,2016-09-15 17:51:36,10,14.606,164.63139568815,7.874016,1.5882274,7.5031498464,197.1,0,0,1024,1024,1024,1024,197.6,-14.9,40,3.647,3.659,3.647,3.653,0,0,6,GPS_Atti,
41.2944861081733,-72.9644494693169,164.63139568815,7.874016,0,7.0020671532,528400,2016-09-15 17:51:36,10,14.606,164.63139568815,7.874016,1.5882274,7.5031498464,197,0,0,1024,1024,1024,1024,197.6,-14.9,40,3.647,3.659,3.647,3.653,0,0,6,GPS_Atti,
41.2944861458967,-72.9644494610483,164.63139568815,7.874016,0,6.9990487804,528500,2016-09-15 17:51:37,10,14.606,164.63139568815,7.874016,1.5882274,7.5031498464,196.9,0,0,1024,1024,1024,1024,197.6,-14.9,40,3.647,3.659,3.647,3.653,0,0,6,GPS_Atti,
41.2944863831758,-72.9644495516367,164.30331168815,7.545932,0,7.019849306,528600,2016-09-15 17:51:37,10,14.606,164.63139568815,7.874016,1.5882274,7.5031498464,196.8,0,0,1024,1024,1024,1024,197.6,-14.9,40,3.647,3.659,3.647,3.653,0,0,6,GPS_Atti,
41.2944863323708,-72.9644495071754,164.30331168815,7.545932,0,7.0084319828,528700,2016-09-15 17:51:37,10,14.606,164.63139568815,7.874016,1.5882274,7.5031498464,196.7,0,0,1024,1024,1024,1024,197.6,-14.9,40,3.647,3.659,3.647,3.653,0,0,6,GPS_Atti,
41.29448668466,-72.9644494748463,164.30331168815,7.545932,0,6.9952758144,528800,2016-09-15 17:51:37,10,14.606,164.63139568815,7.874016,1.5882274,7.5031498464,196.7,0,0,1024,1024,1024,1024,197.6,-14.9,40,3.647,3.659,3.647,3.653,0,0,6,GPS_Atti,
41.2944866417113,-72.9644494732376,164.30331168815,7.545932,0,6.995243006,528900,2016-09-15 17:51:37,10,14.603,164.63139568815,7.874016,1.5882274,7.5031498464,196.7,0,0,1024,1024,1024,1024,197.5,-14.9,40,3.647,3.658,3.647,3.651,0,0,6,GPS_Atti,
41.2944869046289,-72.9644495685471,164.30331168815,7.545932,0,7.0194556052,529000,2016-09-15 17:51:37,10,14.603,164.63139568815,7.874016,1.5882274,7.5031498464,196.8,0,0,1024,1024,1024,1024,197.5,-14.9,40,3.647,3.658,3.647,3.651,0,0,6,GPS_Atti,
41.2944868701835,-72.964449571896,164.30331168815,7.545932,0,7.0205382824,529100,2016-09-15 17:51:37,10,14.603,164.63139568815,7.874016,1.5882274,7.5031498464,197,0,0,1038,1024,1024,1024,197.5,-14.9,40,3.647,3.658,3.647,3.651,0,0,6,GPS_Atti,
41.2944872106305,-72.9644496400135,164.30331168815,7.545932,0,7.0384844772,529300,2016-09-15 17:51:37,10,14.603,164.63139568815,7.874016,1.5882274,7.5031498464,197.2,0,0,1073,1024,1024,1024,197.5,-14.9,40,3.647,3.658,3.647,3.651,0,0,6,GPS_Atti,
41.2944873885727,-72.9644496288926,164.30331168815,7.545932,0,7.0359582304,529400,2016-09-15 17:51:37,10,14.603,164.63139568815,7.874016,1.5882274,7.5031498464,197.2,0,0,1106,1024,1024,1024,197.5,-14.9,40,3.647,3.658,3.647,3.651,0,0,6,GPS_Atti,
41.2944873736441,-72.9644496510133,164.30331168815,7.545932,0,7.0419621676,529500,2016-09-15 17:51:37,10,14.603,164.63139568815,7.874016,1.5882274,7.5031498464,197.2,0,0,1125,1024,1024,1024,197.5,-14.9,40,3.647,3.658,3.647,3.651,0,0,6,GPS_Atti,
41.2944875442193,-72.9644496512012,164.30331168815,7.545932,0,7.042979228,529600,2016-09-15 17:51:38,10,14.603,164.63139568815,7.874016,1.5882274,7.5031498464,197.2,0,0,1242,1030,1024,1011,197.5,-14.9,40,3.647,3.658,3.647,3.651,0,0,6,GPS_Atti,
41.2944874922625,-72.9644496653262,164.30331168815,7.545932,0.223694,7.0464897268,529700,2016-09-15 17:51:38,10,14.603,164.63139568815,7.874016,1.5882274,7.5031498464,197.3,0,0,1170,1024,1024,1024,197.5,-14.9,40,3.647,3.658,3.647,3.651,0,0,6,GPS_Atti,
41.2944874840398,-72.9644497073844,164.30331168815,7.545932,0.447388,7.0579726668,529800,2016-09-15 17:51:38,10,14.603,164.63139568815,7.874016,1.5882274,7.5031498464,197.5,0,0,1176,1024,1024,1024,197.5,-14.9,40,3.647,3.658,3.647,3.651,0,0,6,GPS_Atti,
41.2944873007777,-72.9644497744439,164.30331168815,7.545932,0.671082,7.0755251608,529900,2016-09-15 17:51:38,10,14.603,164.63139568815,7.874016,1.5882274,7.5031498464,197.5,0,0,1187,1024,1024,1024,197.5,-14.9,40,3.647,3.658,3.647,3.651,0,0,6,GPS_Atti,
41.2944871075987,-72.9644498774255,164.30331168815,7.545932,0.9171454,7.1035763428,530000,2016-09-15 17:51:38,10,14.598,164.63139568815,7.874016,1.5882274,7.5031498464,197.4,0,0,1024,1024,1024,1024,197.5,-14.9,40,3.648,3.657,3.642,3.649,0,0,6,GPS_Atti,
41.29448668476,-72.9644500161065,164.30331168815,7.545932,0.9171454,7.1436025908,530100,2016-09-15 17:51:38,10,14.598,164.63139568815,7.874016,1.5882274,7.5031498464,197.3,0,0,1024,1024,1024,1024,197.5,-14.9,40,3.648,3.657,3.642,3.649,0,0,6,GPS_Atti,
41.2944862350872,-72.9644501945874,164.30331168815,7.545932,1.1408394,7.1982941936,530200,2016-09-15 17:51:38,10,14.598,164.63139568815,7.874016,1.5882274,7.5031498464,197.1,0,0,1166,1024,1024,1024,197.5,-14.9,40,3.648,3.657,3.642,3.649,0,0,6,GPS_Atti,
41.2944857453747,-72.9644503410084,164.30331168815,7.545932,1.1408394,7.2488191296,530300,2016-09-15 17:51:38,10,14.598,164.63139568815,7.874016,1.5882274,7.5031498464,197,0,0,1361,1003,1024,1024,197.5,-14.9,40,3.648,3.657,3.642,3.649,0,0,6,GPS_Atti,
41.2944855408839,-72.9644506867598,164.30331168815,7.545932,1.3645334,7.3489831748,530400,2016-09-15 17:51:38,9,14.598,164.63139568815,7.874016,1.5882274,7.5031498464,197.3,0,0,1315,1022,1024,1024,197.5,-14.9,40,3.648,3.657,3.642,3.649,0,0,6,GPS_Atti,
41.2944850006779,-72.9644508864686,164.30331168815,7.545932,1.5882274,7.4217850144,530500,2016-09-15 17:51:39,9,14.598,164.63139568815,7.874016,1.5882274,7.5031498464,197.5,0,0,1270,1024,1024,1024,197.5,-14.9,40,3.648,3.657,3.642,3.649,0,0,6,GPS_Atti,
41.2944846121805,-72.9644512227471,164.30331168815,7.545932,1.8342908,7.5295934168,530600,2016-09-15 17:51:39,9,14.598,164.63139568815,7.874016,1.8342908,7.5295934168,197.6,0,0,1178,1024,1024,1024,197.5,-14.9,40,3.648,3.657,3.642,3.649,0,0,6,GPS_Atti,
41.2944837681676,-72.9644515179666,164.30331168815,7.545932,2.0579848,7.6535107436,530700,2016-09-15 17:51:39,9,14.598,164.63139568815,7.874016,2.0579848,7.6535107436,197.4,0,0,1098,1024,1024,1024,197.5,-14.9,40,3.648,3.657,3.642,3.649,0,0,6,GPS_Atti,
41.2944828198637,-72.9644521582884,164.30331168815,7.545932,2.2816788,7.88877978,530800,2016-09-15 17:51:39,9,14.598,164.63139568815,7.874016,2.2816788,7.88877978,196.9,0,0,1172,1024,1024,1024,197.5,-14.9,40,3.648,3.657,3.642,3.649,0,0,6,GPS_Atti,
41.2944818380703,-72.9644525338191,164.30331168815,7.545932,2.3264176,8.0681761112,530900,2016-09-15 17:51:39,9,14.598,164.63139568815,7.874016,2.3264176,8.0681761112,196.5,0,0,1230,1024,1024,1024,197.5,-14.9,40,3.648,3.657,3.642,3.649,0,0,6,GPS_Atti,
41.2944808740431,-72.9644533616185,164.30331168815,7.545932,2.3264176,8.3778874072,531000,2016-09-15 17:51:39,9,14.588,164.63139568815,7.874016,2.3264176,8.3778874072,196.3,0,0,1164,1024,1024,1024,197.4,-14.9,40,3.644,3.654,3.642,3.647,0,0,6,GPS_Atti,
41.2944799558487,-72.9644539135938,164.30331168815,7.545932,2.5501116,8.6196196984,531100,2016-09-15 17:51:39,9,14.588,164.63139568815,7.874016,2.5501116,8.6196196984,196.1,0,0,1179,1024,1024,1024,197.4,-14.9,40,3.644,3.654,3.642,3.647,0,0,6,GPS_Atti,
41.294478503225,-72.9644547341366,164.63139568815,7.874016,2.8185444,9.0058729916,531200,2016-09-15 17:51:39,9,14.588,164.63139568815,7.874016,2.8185444,9.0058729916,196,0,0,1213,1024,1024,1024,197.4,-14.9,40,3.644,3.654,3.642,3.647,0,0,6,GPS_Atti,
41.2944761033198,-72.9644563101444,164.63139568815,7.874016,3.0422384,9.7402890256,531400,2016-09-15 17:51:39,10,14.588,164.63139568815,7.874016,3.0422384,9.7402890256,196,0,0,1200,1024,1024,1024,197.3,-14.9,40,3.644,3.654,3.642,3.647,0,0,6,GPS_Atti,
41.2944729948743,-72.9644576607226,164.30331168815,7.545932,3.467257,10.5833008636,531600,2016-09-15 17:51:40,10,14.588,164.63139568815,7.874016,3.467257,10.5833008636,196.4,0,0,1082,1024,1024,1024,197.3,-14.9,40,3.644,3.654,3.642,3.647,0,0,6,GPS_Atti,
41.2944713793102,-72.9644583999148,164.30331168815,7.545932,3.690951,11.0556433984,531700,2016-09-15 17:51:40,10,14.588,164.63139568815,7.874016,3.690951,11.0556433984,196.6,0,0,1062,1024,1024,1024,197.2,-14.9,40,3.644,3.654,3.642,3.647,0,0,6,GPS_Atti,
41.2944698102708,-72.9644592672836,164.30331168815,7.545932,3.690951,11.5624347532,531800,2016-09-15 17:51:40,10,14.588,164.63139568815,7.874016,3.690951,11.5624347532,196.7,0,0,1024,1024,1024,1024,197.2,-14.9,40,3.644,3.654,3.642,3.647,0,0,6,GPS_Atti,
41.2944683380134,-72.96445983258,164.30331168815,7.545932,3.690951,11.9916014336,531900,2016-09-15 17:51:40,10,14.588,164.63139568815,7.874016,3.690951,11.9916014336,196.9,0,0,1024,1024,1024,1024,197.2,-14.9,40,3.644,3.654,3.642,3.647,0,0,6,GPS_Atti,
41.2944664632358,-72.9644610760788,164.30331168815,7.545932,3.467257,12.6679465996,532000,2016-09-15 17:51:40,10,14.588,164.63139568815,7.874016,3.690951,12.6679465996,197,0,0,1024,1024,1024,1024,197.2,-14.9,40,3.644,3.654,3.642,3.647,0,0,6,GPS_Atti,
41.2944651130532,-72.9644616098524,164.30331168815,7.545932,3.2659324,13.0826119672,532100,2016-09-15 17:51:40,10,14.588,164.63139568815,7.874016,3.690951,13.0826119672,197,0,0,1024,1024,1024,1004,197.2,-14.9,40,3.644,3.654,3.642,3.647,0,0,6,GPS_Atti,
41.2944637608502,-72.9644622903569,164.30331168815,7.545932,2.9751302,13.5357943964,532200,2016-09-15 17:51:40,10,14.577,164.63139568815,7.874016,3.690951,13.5357943964,196.9,0,0,1024,1024,1024,978,197.2,-14.9,40,3.643,3.652,3.638,3.643,0,0,6,GPS_Atti,
41.2944624865334,-72.9644629982485,164.30331168815,7.545932,2.5501116,13.9815949356,532300,2016-09-15 17:51:40,10,14.577,164.63139568815,7.874016,3.690951,13.9815949356,197,0,0,1024,1024,1040,1024,197.2,-14.9,40,3.643,3.652,3.638,3.643,0,0,6,GPS_Atti,
41.2944611147617,-72.9644637096335,164.30331168815,7.545932,2.5501116,14.4552498064,532400,2016-09-15 17:51:40,10,14.577,164.63139568815,7.874016,3.690951,14.4552498064,197.1,0,0,1024,1024,1128,1024,197.2,-14.9,40,3.643,3.652,3.638,3.643,0,0,6,GPS_Atti,
41.2944584311303,-72.9644646221411,164.30331168815,7.545932,1.8342908,15.2980319856,532600,2016-09-15 17:51:41,10,14.577,164.63139568815,7.874016,3.690951,15.2980319856,197.1,0,0,1024,1024,1183,1024,197.2,-14.9,40,3.643,3.652,3.638,3.643,0,0,6,GPS_Atti,
41.2944577819548,-72.9644648276013,164.30331168815,7.545932,1.3645334,15.5018705748,532700,2016-09-15 17:51:41,10,14.577,164.63139568815,7.874016,3.690951,15.5018705748,196.9,0,0,1024,1024,1134,1024,197.2,-14.9,40,3.643,3.652,3.638,3.643,0,0,6,GPS_Atti,
41.2944575204769,-72.9644643614502,164.63139568815,7.874016,0.894776,15.4762800228,532800,2016-09-15 17:51:41,10,14.577,164.63139568815,7.874016,3.690951,15.5018705748,196.7,0,0,1024,1024,1054,1024,197.2,-14.9,40,3.643,3.652,3.638,3.643,0,0,6,GPS_Atti,
41.2944571651059,-72.9644643809625,164.63139568815,7.874016,0.671082,15.5709650652,532900,2016-09-15 17:51:41,10,14.577,164.63139568815,7.874016,3.690951,15.5709650652,196.7,0,0,1024,1024,1059,1024,197.2,-14.9,40,3.643,3.652,3.638,3.643,0,0,6,GPS_Atti,
41.2944562826856,-72.9644644602793,164.63139568815,7.874016,0.671082,15.8140753092,533000,2016-09-15 17:51:41,10,14.577,164.63139568815,7.874016,3.690951,15.8140753092,196.8,0,0,1024,1024,1120,1024,197.2,-14.9,40,3.643,3.652,3.638,3.643,0,0,6,GPS_Atti,
41.2944560306268,-72.9644644409233,164.63139568815,7.874016,0.447388,15.8760175684,533100,2016-09-15 17:51:41,10,14.577,164.63139568815,7.874016,3.690951,15.8760175684,196.8,0,0,1024,1024,1138,1024,197.2,-14.9,40,3.643,3.652,3.638,3.643,0,0,6,GPS_Atti,
41.2944557894668,-72.9644643226714,164.63139568815,7.874016,0.447388,15.916503134,533200,2016-09-15 17:51:41,10,14.577,164.63139568815,7.874016,3.690951,15.916503134,196.8,0,0,1024,1024,1151,1024,197.2,-14.9,40,3.643,3.652,3.638,3.643,0,0,6,GPS_Atti,
41.2944551174124,-72.9644642417854,164.63139568815,7.874016,0.223694,16.0784453964,533300,2016-09-15 17:51:41,10,14.574,164.63139568815,7.874016,3.690951,16.0784453964,196.8,0,0,1024,1024,1181,1024,197.2,-14.9,40,3.639,3.649,3.636,3.642,0,0,6,GPS_Atti,
41.2944549999622,-72.9644640084857,164.95947968815,8.2021,0.3131716,16.0658797792,533400,2016-09-15 17:51:41,10,14.574,164.95947968815,8.2021,3.690951,16.0784453964,197.4,0,0,1024,1024,1196,1024,197.2,-14.9,40,3.639,3.649,3.636,3.642,0,0,6,GPS_Atti,
41.2944548721924,-72.9644638734768,164.95947968815,8.2021,0.3131716,16.0747380472,533500,2016-09-15 17:51:42,10,14.574,164.95947968815,8.2021,3.690951,16.0784453964,197.8,0,0,1024,1024,1188,1024,197.2,-14.9,40,3.639,3.649,3.636,3.642,0,0,6,GPS_Atti,
41.2944546312479,-72.9644636045132,164.95947968815,8.2021,0.3131716,16.0893705936,533600,2016-09-15 17:51:42,10,14.574,164.95947968815,8.2021,3.690951,16.0893705936,197.6,0,0,1024,1024,1180,1024,197.2,-14.9,40,3.639,3.649,3.636,3.642,0,0,6,GPS_Atti,
41.2944545315254,-72.9644634728656,165.28756368815,8.530184,0.223694,16.0918968404,533700,2016-09-15 17:51:42,10,14.574,165.28756368815,8.530184,3.690951,16.0918968404,197.1,0,0,1024,1024,1138,1027,197.2,-14.9,40,3.639,3.649,3.636,3.642,0,0,6,GPS_Atti,
41.2944547966498,-72.9644629265809,165.28756368815,8.530184,0.223694,15.919619932,533800,2016-09-15 17:51:42,10,14.574,165.28756368815,8.530184,3.690951,16.0918968404,196.8,0,0,1060,1024,1134,1024,197.2,-14.9,40,3.639,3.649,3.636,3.642,0,0,6,GPS_Atti,
41.294454500793,-72.9644627211343,165.61564768815,8.858268,0.223694,15.9623036604,533900,2016-09-15 17:51:42,10,14.574,165.61564768815,8.858268,3.690951,16.0918968404,196.7,0,0,1099,1024,1076,1024,197.2,-14.9,40,3.639,3.649,3.636,3.642,0,0,6,GPS_Atti,
41.2944545862691,-72.9644622886748,165.61564768815,8.858268,0.223694,15.8602695364,534000,2016-09-15 17:51:42,10,14.574,165.61564768815,8.858268,3.690951,16.0918968404,196.4,0,0,1069,1024,1058,1024,197.2,-14.9,40,3.639,3.649,3.636,3.642,0,0,6,GPS_Atti,
41.2944545508205,-72.9644621143339,165.61564768815,8.858268,0.223694,15.8383535252,534100,2016-09-15 17:51:42,10,14.574,165.61564768815,8.858268,3.690951,16.0918968404,196.4,0,0,1099,1024,1064,1024,197.2,-14.9,40,3.639,3.649,3.636,3.642,0,0,6,GPS_Atti,
41.2944545459799,-72.9644618113825,165.61564768815,8.858268,0.223694,15.7849742584,534200,2016-09-15 17:51:42,10,14.574,165.61564768815,8.858268,3.690951,16.0918968404,196.6,0,0,1188,1024,1077,1024,197.2,-14.9,40,3.639,3.649,3.636,3.642,0,0,6,GPS_Atti,
41.29445413077,-72.9644614469356,165.61564768815,8.858268,0.447388,15.8344493256,534400,2016-09-15 17:51:42,10,14.57,165.61564768815,8.858268,3.690951,16.0918968404,197.2,0,0,1161,1024,1112,1024,197.2,-14.9,40,3.622,3.633,3.621,3.631,0,0,6,GPS_Atti,
41.2944537976592,-72.9644613122545,165.94373168815,9.186352,0.447388,15.9033469656,534500,2016-09-15 17:51:42,10,14.57,165.94373168815,9.186352,3.690951,16.0918968404,197.5,0,0,1149,1024,1085,1024,197.2,-14.9,40,3.622,3.633,3.621,3.631,0,0,6,GPS_Atti,
41.2944532716538,-72.9644607211882,165.94373168815,9.186352,0.894776,15.9478023476,534600,2016-09-15 17:51:43,10,14.57,165.94373168815,9.186352,3.690951,16.0918968404,197.7,0,0,1151,1024,1074,1024,197.2,-14.9,40,3.622,3.633,3.621,3.631,0,0,6,GPS_Atti,
41.2944528391851,-72.9644607328978,165.94373168815,9.186352,1.11847,16.0724414592,534700,2016-09-15 17:51:43,10,14.57,165.94373168815,9.186352,3.690951,16.0918968404,197.7,0,0,1147,1024,1056,1024,197.2,-14.9,40,3.622,3.633,3.621,3.631,0,0,6,GPS_Atti,
41.2944523807914,-72.9644607399777,165.94373168815,9.186352,1.11847,16.204232802,534800,2016-09-15 17:51:43,10,14.57,165.94373168815,9.186352,3.690951,16.204232802,197.6,0,0,1104,1024,1163,1037,197.2,-14.9,40,3.622,3.633,3.621,3.631,0,0,6,GPS_Atti,
41.2944518014058,-72.9644608356024,165.94373168815,9.186352,1.342164,16.3864178472,534900,2016-09-15 17:51:43,10,14.57,165.94373168815,9.186352,3.690951,16.3864178472,197.3,0,0,1165,1024,1108,1024,197.2,-14.9,40,3.622,3.633,3.621,3.631,0,0,6,GPS_Atti,
41.2944512009625,-72.9644612128505,165.94373168815,9.186352,1.565858,16.6227367524,535000,2016-09-15 17:51:43,10,14.57,165.94373168815,9.186352,3.690951,16.6227367524,197.1,0,0,1170,1024,1117,1024,197.2,-14.9,40,3.622,3.633,3.621,3.631,0,0,6,GPS_Atti,
41.2944506120191,-72.9644613062929,165.94373168815,9.186352,1.5882274,16.808399488,535100,2016-09-15 17:51:43,10,14.57,165.94373168815,9.186352,3.690951,16.808399488,196.8,0,0,1169,1024,1132,1024,197.2,-14.9,40,3.622,3.633,3.621,3.631,0,0,6,GPS_Atti,
41.2944496210311,-72.9644619073318,165.94373168815,9.186352,1.8119214,17.1957354584,535200,2016-09-15 17:51:43,10,14.57,165.94373168815,9.186352,3.690951,17.1957354584,196.6,0,0,1149,1024,1119,1024,197.2,-14.9,40,3.622,3.633,3.621,3.631,0,0,6,GPS_Atti,
41.294448796943,-72.9644620723567,165.94373168815,9.186352,2.0356154,17.4631567268,535300,2016-09-15 17:51:43,10,14.57,165.94373168815,9.186352,3.690951,17.4631567268,196.3,0,0,1152,1024,1146,1024,197.2,-14.9,40,3.622,3.633,3.621,3.631,0,0,6,GPS_Atti,
41.2944477231638,-72.9644617645565,166.27181568815,9.514436,2.23694,17.7292000424,535400,2016-09-15 17:51:43,10,14.522,166.27181568815,9.514436,3.690951,17.7292000424,196.2,0,0,1198,1024,1146,1037,197.2,-14.9,40,3.627,3.639,3.628,3.633,0,0,6,GPS_Atti,
41.2944467629483,-72.9644618859215,166.27181568815,9.514436,2.23694,18.033793228,535500,2016-09-15 17:51:44,10,14.522,166.27181568815,9.514436,3.690951,18.033793228,196.2,0,0,1281,1024,1110,1024,197.1,-14.9,40,3.627,3.639,3.628,3.633,0,0,6,GPS_Atti,
41.2944454209691,-72.9644626125136,166.27181568815,9.514436,2.7290668,18.54904915,535600,2016-09-15 17:51:44,10,14.522,166.27181568815,9.514436,3.690951,18.54904915,196.4,0,0,1186,1024,1146,1024,197.1,-14.9,40,3.627,3.639,3.628,3.633,0,0,6,GPS_Atti,
41.294444240569,-72.9644629679364,166.27181568815,9.514436,2.7290668,18.9589572996,535700,2016-09-15 17:51:44,10,14.522,166.27181568815,9.514436,3.690951,18.9589572996,196.7,0,0,1160,1024,1136,1024,197.1,-14.9,40,3.627,3.639,3.628,3.633,0,0,6,GPS_Atti,
41.2944428910972,-72.9644633979576,166.27181568815,9.514436,3.1540854,19.4328418292,535800,2016-09-15 17:51:44,10,14.522,166.27181568815,9.514436,3.690951,19.4328418292,196.8,0,0,1189,1024,1120,1024,197.1,-14.9,40,3.627,3.639,3.628,3.633,0,0,6,GPS_Atti,
41.2944415664523,-72.9644637389999,166.59989968815,9.84252,3.3777794,19.8874022112,535900,2016-09-15 17:51:44,10,14.522,166.59989968815,9.84252,3.690951,19.8874022112,196.8,0,0,1024,1024,1104,1024,197.1,-14.9,40,3.627,3.639,3.628,3.633,0,0,6,GPS_Atti,
41.2944398392002,-72.9644643780319,166.59989968815,9.84252,3.4225182,20.5114179792,536000,2016-09-15 17:51:44,10,14.522,166.59989968815,9.84252,3.690951,20.5114179792,196.8,0,0,1024,1024,1186,1024,197.1,-14.9,40,3.627,3.639,3.628,3.633,0,0,6,GPS_Atti,
41.2944364449673,-72.9644657890814,166.59989968815,9.84252,3.6462122,21.765256602,536200,2016-09-15 17:51:44,10,14.522,166.59989968815,9.84252,3.690951,21.765256602,196.6,0,0,1024,1024,1168,1024,197.1,-14.9,40,3.627,3.639,3.628,3.633,0,0,6,GPS_Atti,
41.2944349566251,-72.9644662095545,166.92798368815,10.170604,3.6462122,22.2883537316,536300,2016-09-15 17:51:44,10,14.522,166.92798368815,10.170604,3.690951,22.2883537316,196.6,0,0,1024,1024,1178,1024,197.1,-14.9,40,3.627,3.639,3.628,3.633,0,0,6,GPS_Atti,
41.2944328397923,-72.9644670992189,166.92798368815,10.170604,3.4225182,23.0757553316,536400,2016-09-15 17:51:44,10,14.522,166.92798368815,10.170604,3.690951,23.0757553316,196.7,0,0,1024,1024,1175,1024,197.1,-14.9,40,3.627,3.639,3.628,3.633,0,0,6,GPS_Atti,
41.2944314777218,-72.9644674512816,167.25606768815,10.498688,3.1540854,23.5525926172,536500,2016-09-15 17:51:44,10,14.522,167.25606768815,10.498688,3.690951,23.5525926172,196.8,0,0,1024,1024,1156,1024,197.1,-14.9,40,3.627,3.639,3.628,3.633,0,0,6,GPS_Atti,
